{
  "generated": "2025-09-21T13:34:32.796Z",
  "center": {
    "lat": -33.867,
    "lng": 151.2045
  },
  "radiusKm": 35,
  "count": 735,
  "configHash": "{\"lat\":-33.867,\"lng\":151.2045,\"radius\":35}",
  "source": "database",
  "suburbs": [
    {
      "id": 4366,
      "name": "Sydney",
      "postcode": "1001",
      "state": "NSW",
      "latitude": -33.8679426,
      "longitude": 151.2100079,
      "distanceKm": 0.52,
      "direction": "E",
      "population": 16905
    },
    {
      "id": 4319,
      "name": "Sydney Wharf",
      "postcode": "2009",
      "state": "NSW",
      "latitude": -33.8667212,
      "longitude": 151.1979905,
      "distanceKm": 0.6,
      "direction": "W",
      "population": null
    },
    {
      "id": 4340,
      "name": "The Hungry Mile",
      "postcode": "2000",
      "state": "NSW",
      "latitude": -33.8612415,
      "longitude": 151.2028557,
      "distanceKm": 0.66,
      "direction": "N",
      "population": null
    },
    {
      "id": 2746,
      "name": "Barangaroo",
      "postcode": "2000",
      "state": "NSW",
      "latitude": -33.8614084,
      "longitude": 151.2016877,
      "distanceKm": 0.67,
      "direction": "NW",
      "population": 4343
    },
    {
      "id": 5554,
      "name": "Darling Island",
      "postcode": "2009",
      "state": "NSW",
      "latitude": -33.8653494,
      "longitude": 151.1962739,
      "distanceKm": 0.78,
      "direction": "W",
      "population": null
    },
    {
      "id": 4159,
      "name": "Quay Quarter",
      "postcode": "2000",
      "state": "NSW",
      "latitude": -33.8626799,
      "longitude": 151.2111434,
      "distanceKm": 0.78,
      "direction": "NE",
      "population": null
    },
    {
      "id": 77,
      "name": "The Rocks",
      "postcode": "2000",
      "state": "NSW",
      "latitude": -33.859992,
      "longitude": 151.2083216,
      "distanceKm": 0.85,
      "direction": "NE",
      "population": 892
    },
    {
      "id": 63,
      "name": "Millers Point",
      "postcode": "2000",
      "state": "NSW",
      "latitude": -33.8591,
      "longitude": 151.2042529,
      "distanceKm": 0.88,
      "direction": "N",
      "population": null
    },
    {
      "id": 2792,
      "name": "Dawes Point",
      "postcode": "2000",
      "state": "NSW",
      "latitude": -33.8572223,
      "longitude": 151.2067756,
      "distanceKm": 1.1,
      "direction": "N",
      "population": null
    },
    {
      "id": 4058,
      "name": "Koreatown",
      "postcode": "1208",
      "state": "NSW",
      "latitude": -33.8766464,
      "longitude": 151.2078492,
      "distanceKm": 1.11,
      "direction": "S",
      "population": null
    },
    {
      "id": 4257,
      "name": "Parade Ground",
      "postcode": "2000",
      "state": "NSW",
      "latitude": -33.8614699,
      "longitude": 151.2149661,
      "distanceKm": 1.15,
      "direction": "NE",
      "population": null
    },
    {
      "id": 2,
      "name": "Pyrmont",
      "postcode": "2009",
      "state": "NSW",
      "latitude": -33.8692145,
      "longitude": 151.1923633,
      "distanceKm": 1.15,
      "direction": "W",
      "population": 12658
    },
    {
      "id": 4259,
      "name": "Fig Tree Lawn",
      "postcode": "1001",
      "state": "NSW",
      "latitude": -33.8630003,
      "longitude": 151.2167593,
      "distanceKm": 1.22,
      "direction": "E",
      "population": null
    },
    {
      "id": 3039,
      "name": "Chinatown",
      "postcode": "1208",
      "state": "NSW",
      "latitude": -33.8783674,
      "longitude": 151.204068,
      "distanceKm": 1.26,
      "direction": "S",
      "population": null
    },
    {
      "id": 4246,
      "name": "Band Lawn",
      "postcode": "1335",
      "state": "NSW",
      "latitude": -33.8644367,
      "longitude": 151.2178756,
      "distanceKm": 1.27,
      "direction": "E",
      "population": 4343
    },
    {
      "id": 5552,
      "name": "Darling Square",
      "postcode": "2007",
      "state": "NSW",
      "latitude": -33.8784647,
      "longitude": 151.202277,
      "distanceKm": 1.29,
      "direction": "S",
      "population": null
    },
    {
      "id": 4255,
      "name": "Flower Bed Lawn",
      "postcode": "1335",
      "state": "NSW",
      "latitude": -33.8637145,
      "longitude": 151.2182458,
      "distanceKm": 1.32,
      "direction": "E",
      "population": null
    },
    {
      "id": 4262,
      "name": "Bennelong Lawn",
      "postcode": "2000",
      "state": "NSW",
      "latitude": -33.8584999,
      "longitude": 151.2148211,
      "distanceKm": 1.34,
      "direction": "NE",
      "population": 4343
    },
    {
      "id": 4305,
      "name": "Thai Town",
      "postcode": "1208",
      "state": "NSW",
      "latitude": -33.8793467,
      "longitude": 151.2070452,
      "distanceKm": 1.39,
      "direction": "S",
      "population": null
    },
    {
      "id": 4254,
      "name": "Mare and Foal Lawn",
      "postcode": "1335",
      "state": "NSW",
      "latitude": -33.8634216,
      "longitude": 151.2193268,
      "distanceKm": 1.43,
      "direction": "E",
      "population": null
    },
    {
      "id": 3,
      "name": "Woolloomooloo",
      "postcode": "2011",
      "state": "NSW",
      "latitude": -33.8718758,
      "longitude": 151.2192218,
      "distanceKm": 1.47,
      "direction": "E",
      "population": null
    },
    {
      "id": 2455,
      "name": "Ultimo",
      "postcode": "2007",
      "state": "NSW",
      "latitude": -33.8794728,
      "longitude": 151.1984346,
      "distanceKm": 1.49,
      "direction": "SW",
      "population": 7410
    },
    {
      "id": 4258,
      "name": "Harbour View Lawn",
      "postcode": "1335",
      "state": "NSW",
      "latitude": -33.8628982,
      "longitude": 151.2200915,
      "distanceKm": 1.51,
      "direction": "E",
      "population": null
    },
    {
      "id": 4256,
      "name": "Eucalypt Lawn",
      "postcode": "1335",
      "state": "NSW",
      "latitude": -33.8633824,
      "longitude": 151.2205414,
      "distanceKm": 1.54,
      "direction": "E",
      "population": null
    },
    {
      "id": 119,
      "name": "Balmain East",
      "postcode": "2041",
      "state": "NSW",
      "latitude": -33.8571789,
      "longitude": 151.192354,
      "distanceKm": 1.57,
      "direction": "NW",
      "population": 4343
    },
    {
      "id": 2285,
      "name": "Haymarket",
      "postcode": "1208",
      "state": "NSW",
      "latitude": -33.8814408,
      "longitude": 151.2044524,
      "distanceKm": 1.6,
      "direction": "S",
      "population": null
    },
    {
      "id": 2457,
      "name": "Potts Point",
      "postcode": "1335",
      "state": "NSW",
      "latitude": -33.867522,
      "longitude": 151.2243115,
      "distanceKm": 1.83,
      "direction": "E",
      "population": null
    },
    {
      "id": 2789,
      "name": "Darlinghurst",
      "postcode": "1300",
      "state": "NSW",
      "latitude": -33.8783381,
      "longitude": 151.219225,
      "distanceKm": 1.85,
      "direction": "SE",
      "population": 10615
    },
    {
      "id": 5551,
      "name": "Railway Square",
      "postcode": "1208",
      "state": "NSW",
      "latitude": -33.8836588,
      "longitude": 151.2035131,
      "distanceKm": 1.85,
      "direction": "S",
      "population": null
    },
    {
      "id": 4237,
      "name": "Glebe Island",
      "postcode": "2009",
      "state": "NSW",
      "latitude": -33.8662904,
      "longitude": 151.1838513,
      "distanceKm": 1.91,
      "direction": "W",
      "population": null
    },
    {
      "id": 1,
      "name": "Surry Hills",
      "postcode": "2010",
      "state": "NSW",
      "latitude": -33.8845123,
      "longitude": 151.2100301,
      "distanceKm": 2.01,
      "direction": "S",
      "population": 15828
    },
    {
      "id": 2456,
      "name": "Glebe",
      "postcode": "2037",
      "state": "NSW",
      "latitude": -33.8777782,
      "longitude": 151.1862377,
      "distanceKm": 2.07,
      "direction": "SW",
      "population": null
    },
    {
      "id": 2513,
      "name": "Prince Alfred Sidings",
      "postcode": "1420",
      "state": "NSW",
      "latitude": -33.8862969,
      "longitude": 151.2054348,
      "distanceKm": 2.14,
      "direction": "S",
      "population": null
    },
    {
      "id": 10,
      "name": "Chippendale",
      "postcode": "2008",
      "state": "NSW",
      "latitude": -33.8863291,
      "longitude": 151.1998211,
      "distanceKm": 2.19,
      "direction": "S",
      "population": 7803
    },
    {
      "id": 2790,
      "name": "Elizabeth Bay",
      "postcode": "2011",
      "state": "NSW",
      "latitude": -33.8716908,
      "longitude": 151.2282875,
      "distanceKm": 2.26,
      "direction": "E",
      "population": null
    },
    {
      "id": 120,
      "name": "Glebe Point",
      "postcode": "2037",
      "state": "NSW",
      "latitude": -33.8712418,
      "longitude": 151.1804934,
      "distanceKm": 2.27,
      "direction": "W",
      "population": null
    },
    {
      "id": 2013,
      "name": "Milsons Point",
      "postcode": "1565",
      "state": "NSW",
      "latitude": -33.8471255,
      "longitude": 151.2115234,
      "distanceKm": 2.3,
      "direction": "N",
      "population": null
    },
    {
      "id": 2791,
      "name": "Rushcutters Bay",
      "postcode": "2011",
      "state": "NSW",
      "latitude": -33.8750365,
      "longitude": 151.2276557,
      "distanceKm": 2.32,
      "direction": "E",
      "population": null
    },
    {
      "id": 35,
      "name": "Kirribilli",
      "postcode": "2061",
      "state": "NSW",
      "latitude": -33.8476659,
      "longitude": 151.2158138,
      "distanceKm": 2.39,
      "direction": "NE",
      "population": null
    },
    {
      "id": 110,
      "name": "Balmain",
      "postcode": "2041",
      "state": "NSW",
      "latitude": -33.8583992,
      "longitude": 151.1807353,
      "distanceKm": 2.4,
      "direction": "W",
      "population": 15579
    },
    {
      "id": 2284,
      "name": "Strawberry Hills",
      "postcode": "1420",
      "state": "NSW",
      "latitude": -33.8892149,
      "longitude": 151.2084122,
      "distanceKm": 2.49,
      "direction": "S",
      "population": null
    },
    {
      "id": 2012,
      "name": "McMahons Point",
      "postcode": "2060",
      "state": "NSW",
      "latitude": -33.8443387,
      "longitude": 151.2027957,
      "distanceKm": 2.52,
      "direction": "N",
      "population": null
    },
    {
      "id": 2011,
      "name": "Lavender Bay",
      "postcode": "2060",
      "state": "NSW",
      "latitude": -33.8432002,
      "longitude": 151.2074155,
      "distanceKm": 2.65,
      "direction": "N",
      "population": null
    },
    {
      "id": 2782,
      "name": "Birchgrove",
      "postcode": "2041",
      "state": "NSW",
      "latitude": -33.8507685,
      "longitude": 151.1830352,
      "distanceKm": 2.68,
      "direction": "NW",
      "population": 4343
    },
    {
      "id": 2007,
      "name": "Rozelle",
      "postcode": "2039",
      "state": "NSW",
      "latitude": -33.8645002,
      "longitude": 151.1743543,
      "distanceKm": 2.8,
      "direction": "W",
      "population": null
    },
    {
      "id": 94,
      "name": "Paddington",
      "postcode": "2021",
      "state": "NSW",
      "latitude": -33.8841572,
      "longitude": 151.2272766,
      "distanceKm": 2.84,
      "direction": "SE",
      "population": null
    },
    {
      "id": 2279,
      "name": "Forest Lodge",
      "postcode": "2037",
      "state": "NSW",
      "latitude": -33.8805556,
      "longitude": 151.1783333,
      "distanceKm": 2.85,
      "direction": "SW",
      "population": null
    },
    {
      "id": 45,
      "name": "Redfern",
      "postcode": "2016",
      "state": "NSW",
      "latitude": -33.8931044,
      "longitude": 151.2040292,
      "distanceKm": 2.9,
      "direction": "S",
      "population": 13670
    },
    {
      "id": 2642,
      "name": "Golden Grove",
      "postcode": "2008",
      "state": "NSW",
      "latitude": -33.8923843,
      "longitude": 151.1942229,
      "distanceKm": 2.97,
      "direction": "S",
      "population": null
    },
    {
      "id": 2986,
      "name": "Poet's Corner",
      "postcode": "2016",
      "state": "NSW",
      "latitude": -33.8943047,
      "longitude": 151.2091166,
      "distanceKm": 3.06,
      "direction": "S",
      "population": null
    },
    {
      "id": 2894,
      "name": "Victoria Cross",
      "postcode": "2055",
      "state": "NSW",
      "latitude": -33.8388637,
      "longitude": 151.2066496,
      "distanceKm": 3.13,
      "direction": "N",
      "population": null
    },
    {
      "id": 26,
      "name": "Darling Point",
      "postcode": "2027",
      "state": "NSW",
      "latitude": -33.8730723,
      "longitude": 151.2376378,
      "distanceKm": 3.14,
      "direction": "E",
      "population": null
    },
    {
      "id": 2787,
      "name": "Edgecliff",
      "postcode": "2027",
      "state": "NSW",
      "latitude": -33.8797692,
      "longitude": 151.2361116,
      "distanceKm": 3.25,
      "direction": "E",
      "population": null
    },
    {
      "id": 4351,
      "name": "Carthorse Corner",
      "postcode": "2055",
      "state": "NSW",
      "latitude": -33.838664,
      "longitude": 151.2136443,
      "distanceKm": 3.25,
      "direction": "N",
      "population": 4343
    },
    {
      "id": 2464,
      "name": "Kurraba Point",
      "postcode": "2089",
      "state": "NSW",
      "latitude": -33.8415873,
      "longitude": 151.223028,
      "distanceKm": 3.3,
      "direction": "NE",
      "population": null
    },
    {
      "id": 4066,
      "name": "South Eveleigh",
      "postcode": "1430",
      "state": "NSW",
      "latitude": -33.8960744,
      "longitude": 151.1958335,
      "distanceKm": 3.32,
      "direction": "S",
      "population": null
    },
    {
      "id": 56,
      "name": "Waverton",
      "postcode": "2060",
      "state": "NSW",
      "latitude": -33.8375313,
      "longitude": 151.1973535,
      "distanceKm": 3.33,
      "direction": "N",
      "population": null
    },
    {
      "id": 2281,
      "name": "Eveleigh",
      "postcode": "1430",
      "state": "NSW",
      "latitude": -33.895,
      "longitude": 151.1913889,
      "distanceKm": 3.33,
      "direction": "SW",
      "population": null
    },
    {
      "id": 87,
      "name": "Camperdown",
      "postcode": "1450",
      "state": "NSW",
      "latitude": -33.8896116,
      "longitude": 151.1800986,
      "distanceKm": 3.37,
      "direction": "SW",
      "population": 4343
    },
    {
      "id": 2463,
      "name": "Berry Island",
      "postcode": "2060",
      "state": "NSW",
      "latitude": -33.8395965,
      "longitude": 151.1886165,
      "distanceKm": 3.38,
      "direction": "NW",
      "population": 4343
    },
    {
      "id": 2514,
      "name": "Eveleigh Car Sidings",
      "postcode": "1430",
      "state": "NSW",
      "latitude": -33.8959061,
      "longitude": 151.1915037,
      "distanceKm": 3.42,
      "direction": "SW",
      "population": null
    },
    {
      "id": 4252,
      "name": "Bolt Wharf",
      "postcode": "2041",
      "state": "NSW",
      "latitude": -33.8481083,
      "longitude": 151.1748419,
      "distanceKm": 3.45,
      "direction": "NW",
      "population": 4343
    },
    {
      "id": 2515,
      "name": "Illawarra Junction",
      "postcode": "1430",
      "state": "NSW",
      "latitude": -33.8956402,
      "longitude": 151.1896979,
      "distanceKm": 3.46,
      "direction": "SW",
      "population": null
    },
    {
      "id": 2006,
      "name": "Annandale",
      "postcode": "2038",
      "state": "NSW",
      "latitude": -33.881224,
      "longitude": 151.1709976,
      "distanceKm": 3.48,
      "direction": "SW",
      "population": 4343
    },
    {
      "id": 25,
      "name": "North Sydney",
      "postcode": "2055",
      "state": "NSW",
      "latitude": -33.8354519,
      "longitude": 151.2083011,
      "distanceKm": 3.52,
      "direction": "N",
      "population": null
    },
    {
      "id": 4251,
      "name": "Industrial Precinct",
      "postcode": "2110",
      "state": "NSW",
      "latitude": -33.8480679,
      "longitude": 151.1733943,
      "distanceKm": 3.56,
      "direction": "NW",
      "population": null
    },
    {
      "id": 2288,
      "name": "Moore Park",
      "postcode": "2021",
      "state": "NSW",
      "latitude": -33.8958333,
      "longitude": 151.2219444,
      "distanceKm": 3.58,
      "direction": "SE",
      "population": null
    },
    {
      "id": 2010,
      "name": "Cremorne Point",
      "postcode": "2090",
      "state": "NSW",
      "latitude": -33.8409547,
      "longitude": 151.2279762,
      "distanceKm": 3.61,
      "direction": "NE",
      "population": null
    },
    {
      "id": 2282,
      "name": "Macdonaldtown",
      "postcode": "1430",
      "state": "NSW",
      "latitude": -33.8983333,
      "longitude": 151.1927778,
      "distanceKm": 3.64,
      "direction": "S",
      "population": null
    },
    {
      "id": 28,
      "name": "Double Bay",
      "postcode": "1360",
      "state": "NSW",
      "latitude": -33.8766373,
      "longitude": 151.24245,
      "distanceKm": 3.67,
      "direction": "E",
      "population": null
    },
    {
      "id": 4248,
      "name": "Docks Precinct",
      "postcode": "2110",
      "state": "NSW",
      "latitude": -33.8489554,
      "longitude": 151.1712542,
      "distanceKm": 3.67,
      "direction": "NW",
      "population": null
    },
    {
      "id": 2287,
      "name": "Waterloo",
      "postcode": "1440",
      "state": "NSW",
      "latitude": -33.9002762,
      "longitude": 151.2073137,
      "distanceKm": 3.7,
      "direction": "S",
      "population": 16379
    },
    {
      "id": 4249,
      "name": "Historic Residence Precinct",
      "postcode": "2110",
      "state": "NSW",
      "latitude": -33.8470758,
      "longitude": 151.1723538,
      "distanceKm": 3.71,
      "direction": "NW",
      "population": null
    },
    {
      "id": 2516,
      "name": "Macdonaldtown Yard",
      "postcode": "1430",
      "state": "NSW",
      "latitude": -33.8970014,
      "longitude": 151.1864785,
      "distanceKm": 3.72,
      "direction": "SW",
      "population": null
    },
    {
      "id": 4250,
      "name": "Ship Design Precinct",
      "postcode": "2110",
      "state": "NSW",
      "latitude": -33.8477574,
      "longitude": 151.1716068,
      "distanceKm": 3.72,
      "direction": "NW",
      "population": null
    },
    {
      "id": 2263,
      "name": "Centennial Square",
      "postcode": "2021",
      "state": "NSW",
      "latitude": -33.89,
      "longitude": 151.2344444,
      "distanceKm": 3.77,
      "direction": "SE",
      "population": null
    },
    {
      "id": 4247,
      "name": "Convict Precinct",
      "postcode": "2110",
      "state": "NSW",
      "latitude": -33.847965,
      "longitude": 151.1706178,
      "distanceKm": 3.78,
      "direction": "NW",
      "population": null
    },
    {
      "id": 2773,
      "name": "Wollstonecraft",
      "postcode": "2065",
      "state": "NSW",
      "latitude": -33.8332039,
      "longitude": 151.1959273,
      "distanceKm": 3.83,
      "direction": "N",
      "population": null
    },
    {
      "id": 37,
      "name": "Neutral Bay",
      "postcode": "2089",
      "state": "NSW",
      "latitude": -33.8342887,
      "longitude": 151.2182049,
      "distanceKm": 3.84,
      "direction": "NE",
      "population": null
    },
    {
      "id": 2571,
      "name": "Newtown",
      "postcode": "2042",
      "state": "NSW",
      "latitude": -33.8961132,
      "longitude": 151.1801893,
      "distanceKm": 3.94,
      "direction": "SW",
      "population": null
    },
    {
      "id": 111,
      "name": "Lilyfield",
      "postcode": "2040",
      "state": "NSW",
      "latitude": -33.8709879,
      "longitude": 151.1616185,
      "distanceKm": 3.99,
      "direction": "W",
      "population": null
    },
    {
      "id": 4236,
      "name": "Cannon Triangle",
      "postcode": "2021",
      "state": "NSW",
      "latitude": -33.893581,
      "longitude": 151.2338013,
      "distanceKm": 4.01,
      "direction": "SE",
      "population": 4343
    },
    {
      "id": 2294,
      "name": "Woollahra",
      "postcode": "1350",
      "state": "NSW",
      "latitude": -33.8857968,
      "longitude": 151.2440867,
      "distanceKm": 4.21,
      "direction": "SE",
      "population": 7454
    },
    {
      "id": 2280,
      "name": "Erskineville",
      "postcode": "2043",
      "state": "NSW",
      "latitude": -33.9021718,
      "longitude": 151.1859881,
      "distanceKm": 4.26,
      "direction": "SW",
      "population": null
    },
    {
      "id": 4282,
      "name": "Neutral Bay Junction",
      "postcode": "2089",
      "state": "NSW",
      "latitude": -33.8315407,
      "longitude": 151.2224212,
      "distanceKm": 4.27,
      "direction": "NE",
      "population": null
    },
    {
      "id": 1992,
      "name": "Woolwich",
      "postcode": "2110",
      "state": "NSW",
      "latitude": -33.8401988,
      "longitude": 151.1710614,
      "distanceKm": 4.29,
      "direction": "NW",
      "population": null
    },
    {
      "id": 27,
      "name": "Point Piper",
      "postcode": "2027",
      "state": "NSW",
      "latitude": -33.8676276,
      "longitude": 151.2515727,
      "distanceKm": 4.36,
      "direction": "E",
      "population": null
    },
    {
      "id": 2261,
      "name": "Centennial Park",
      "postcode": "2021",
      "state": "NSW",
      "latitude": -33.8977778,
      "longitude": 151.2338889,
      "distanceKm": 4.36,
      "direction": "SE",
      "population": null
    },
    {
      "id": 3047,
      "name": "Crows Nest Junction",
      "postcode": "1585",
      "state": "NSW",
      "latitude": -33.8276962,
      "longitude": 151.2007098,
      "distanceKm": 4.37,
      "direction": "N",
      "population": null
    },
    {
      "id": 1987,
      "name": "Greenwich",
      "postcode": "2065",
      "state": "NSW",
      "latitude": -33.8300104,
      "longitude": 151.1855621,
      "distanceKm": 4.46,
      "direction": "NW",
      "population": null
    },
    {
      "id": 2286,
      "name": "Zetland",
      "postcode": "2017",
      "state": "NSW",
      "latitude": -33.9076623,
      "longitude": 151.2082183,
      "distanceKm": 4.52,
      "direction": "S",
      "population": 12622
    },
    {
      "id": 4245,
      "name": "Fearnley Grounds",
      "postcode": "2021",
      "state": "NSW",
      "latitude": -33.9025101,
      "longitude": 151.2284345,
      "distanceKm": 4.52,
      "direction": "SE",
      "population": null
    },
    {
      "id": 55,
      "name": "Crows Nest",
      "postcode": "1585",
      "state": "NSW",
      "latitude": -33.8256273,
      "longitude": 151.2014745,
      "distanceKm": 4.6,
      "direction": "N",
      "population": null
    },
    {
      "id": 46,
      "name": "Stanmore",
      "postcode": "2048",
      "state": "NSW",
      "latitude": -33.8936689,
      "longitude": 151.1656456,
      "distanceKm": 4.66,
      "direction": "SW",
      "population": null
    },
    {
      "id": 47,
      "name": "Leichhardt",
      "postcode": "2040",
      "state": "NSW",
      "latitude": -33.8819328,
      "longitude": 151.155867,
      "distanceKm": 4.79,
      "direction": "W",
      "population": 17532
    },
    {
      "id": 24,
      "name": "Alexandria",
      "postcode": "1435",
      "state": "NSW",
      "latitude": -33.9091568,
      "longitude": 151.1921281,
      "distanceKm": 4.81,
      "direction": "S",
      "population": 4343
    },
    {
      "id": 4283,
      "name": "Cremorne Junction",
      "postcode": "2090",
      "state": "NSW",
      "latitude": -33.8281058,
      "longitude": 151.230289,
      "distanceKm": 4.93,
      "direction": "NE",
      "population": null
    },
    {
      "id": 2009,
      "name": "Cremorne",
      "postcode": "2090",
      "state": "NSW",
      "latitude": -33.8260081,
      "longitude": 151.2254326,
      "distanceKm": 4.94,
      "direction": "NE",
      "population": null
    },
    {
      "id": 2283,
      "name": "Beaconsfield",
      "postcode": "2015",
      "state": "NSW",
      "latitude": -33.9114691,
      "longitude": 151.200315,
      "distanceKm": 4.95,
      "direction": "S",
      "population": 4343
    },
    {
      "id": 1985,
      "name": "Northwood",
      "postcode": "2066",
      "state": "NSW",
      "latitude": -33.827964,
      "longitude": 151.1782693,
      "distanceKm": 4.96,
      "direction": "NW",
      "population": null
    },
    {
      "id": 2127,
      "name": "Drummoyne",
      "postcode": "1470",
      "state": "NSW",
      "latitude": -33.8520678,
      "longitude": 151.153689,
      "distanceKm": 4.99,
      "direction": "W",
      "population": null
    },
    {
      "id": 2295,
      "name": "Bellevue Hill",
      "postcode": "2023",
      "state": "NSW",
      "latitude": -33.8797123,
      "longitude": 151.2561988,
      "distanceKm": 4.99,
      "direction": "E",
      "population": 14429
    },
    {
      "id": 38,
      "name": "Cammeray",
      "postcode": "2062",
      "state": "NSW",
      "latitude": -33.8222738,
      "longitude": 151.2139868,
      "distanceKm": 5.04,
      "direction": "N",
      "population": 4343
    },
    {
      "id": 34,
      "name": "St Leonards",
      "postcode": "1590",
      "state": "NSW",
      "latitude": -33.8225666,
      "longitude": 151.1923402,
      "distanceKm": 5.06,
      "direction": "N",
      "population": null
    },
    {
      "id": 31,
      "name": "Bondi Junction",
      "postcode": "1355",
      "state": "NSW",
      "latitude": -33.8930034,
      "longitude": 151.2501228,
      "distanceKm": 5.11,
      "direction": "SE",
      "population": 4343
    },
    {
      "id": 8,
      "name": "Kensington",
      "postcode": "1465",
      "state": "NSW",
      "latitude": -33.9117191,
      "longitude": 151.2195058,
      "distanceKm": 5.15,
      "direction": "S",
      "population": null
    },
    {
      "id": 2008,
      "name": "Clifton Gardens",
      "postcode": "2088",
      "state": "NSW",
      "latitude": -33.84,
      "longitude": 151.2511111,
      "distanceKm": 5.25,
      "direction": "NE",
      "population": null
    },
    {
      "id": 2289,
      "name": "Queens Park",
      "postcode": "2022",
      "state": "NSW",
      "latitude": -33.8991667,
      "longitude": 151.2472222,
      "distanceKm": 5.32,
      "direction": "SE",
      "population": null
    },
    {
      "id": 1984,
      "name": "Longueville",
      "postcode": "2066",
      "state": "NSW",
      "latitude": -33.8291667,
      "longitude": 151.1686111,
      "distanceKm": 5.35,
      "direction": "NW",
      "population": null
    },
    {
      "id": 3027,
      "name": "Kellys Flat",
      "postcode": "2066",
      "state": "NSW",
      "latitude": -33.8226213,
      "longitude": 151.1791548,
      "distanceKm": 5.45,
      "direction": "NW",
      "population": null
    },
    {
      "id": 9,
      "name": "Petersham",
      "postcode": "2049",
      "state": "NSW",
      "latitude": -33.8945061,
      "longitude": 151.1554222,
      "distanceKm": 5.47,
      "direction": "SW",
      "population": null
    },
    {
      "id": 2050,
      "name": "Naremburn",
      "postcode": "2065",
      "state": "NSW",
      "latitude": -33.8172735,
      "longitude": 151.2012204,
      "distanceKm": 5.52,
      "direction": "N",
      "population": null
    },
    {
      "id": 36,
      "name": "Mosman",
      "postcode": "2088",
      "state": "NSW",
      "latitude": -33.8301355,
      "longitude": 151.2447663,
      "distanceKm": 5.53,
      "direction": "NE",
      "population": null
    },
    {
      "id": 2228,
      "name": "St Peters",
      "postcode": "2044",
      "state": "NSW",
      "latitude": -33.9111235,
      "longitude": 151.1761345,
      "distanceKm": 5.55,
      "direction": "SW",
      "population": null
    },
    {
      "id": 2132,
      "name": "Rodd Point",
      "postcode": "2046",
      "state": "NSW",
      "latitude": -33.8658359,
      "longitude": 151.143583,
      "distanceKm": 5.64,
      "direction": "W",
      "population": null
    },
    {
      "id": 2818,
      "name": "Folly Point",
      "postcode": "2090",
      "state": "NSW",
      "latitude": -33.818803,
      "longitude": 151.2256804,
      "distanceKm": 5.69,
      "direction": "NE",
      "population": null
    },
    {
      "id": 2296,
      "name": "Rose Bay",
      "postcode": "2029",
      "state": "NSW",
      "latitude": -33.8741644,
      "longitude": 151.265471,
      "distanceKm": 5.7,
      "direction": "E",
      "population": null
    },
    {
      "id": 39,
      "name": "Rosebery",
      "postcode": "1445",
      "state": "NSW",
      "latitude": -33.9185861,
      "longitude": 151.204692,
      "distanceKm": 5.72,
      "direction": "S",
      "population": null
    },
    {
      "id": 2430,
      "name": "Blaxlands Corner",
      "postcode": "2066",
      "state": "NSW",
      "latitude": -33.823228,
      "longitude": 151.1718978,
      "distanceKm": 5.72,
      "direction": "NW",
      "population": 4343
    },
    {
      "id": 4205,
      "name": "Spit Junction",
      "postcode": "2088",
      "state": "NSW",
      "latitude": -33.8245167,
      "longitude": 151.2409127,
      "distanceKm": 5.79,
      "direction": "NE",
      "population": null
    },
    {
      "id": 4194,
      "name": "Charing Cross",
      "postcode": "2024",
      "state": "NSW",
      "latitude": -33.9002597,
      "longitude": 151.25359,
      "distanceKm": 5.85,
      "direction": "SE",
      "population": null
    },
    {
      "id": 2133,
      "name": "Russell Lea",
      "postcode": "2046",
      "state": "NSW",
      "latitude": -33.8585361,
      "longitude": 151.1416007,
      "distanceKm": 5.9,
      "direction": "W",
      "population": null
    },
    {
      "id": 1986,
      "name": "Gore Hill",
      "postcode": "2065",
      "state": "NSW",
      "latitude": -33.815,
      "longitude": 151.1844444,
      "distanceKm": 6.06,
      "direction": "N",
      "population": null
    },
    {
      "id": 61,
      "name": "Waverley",
      "postcode": "2024",
      "state": "NSW",
      "latitude": -33.9019365,
      "longitude": 151.2558816,
      "distanceKm": 6.13,
      "direction": "SE",
      "population": null
    },
    {
      "id": 2292,
      "name": "Bondi",
      "postcode": "2026",
      "state": "NSW",
      "latitude": -33.8930556,
      "longitude": 151.2633333,
      "distanceKm": 6.16,
      "direction": "SE",
      "population": 4343
    },
    {
      "id": 2512,
      "name": "Haberfield",
      "postcode": "2045",
      "state": "NSW",
      "latitude": -33.8794325,
      "longitude": 151.1391605,
      "distanceKm": 6.2,
      "direction": "W",
      "population": null
    },
    {
      "id": 2227,
      "name": "Lewisham",
      "postcode": "2049",
      "state": "NSW",
      "latitude": -33.8953868,
      "longitude": 151.1466449,
      "distanceKm": 6.21,
      "direction": "SW",
      "population": null
    },
    {
      "id": 5,
      "name": "Randwick",
      "postcode": "2031",
      "state": "NSW",
      "latitude": -33.914121,
      "longitude": 151.2410046,
      "distanceKm": 6.22,
      "direction": "SE",
      "population": null
    },
    {
      "id": 2053,
      "name": "Northbridge",
      "postcode": "1560",
      "state": "NSW",
      "latitude": -33.8111111,
      "longitude": 151.2175,
      "distanceKm": 6.31,
      "direction": "N",
      "population": null
    },
    {
      "id": 1991,
      "name": "Huntleys Point",
      "postcode": "2111",
      "state": "NSW",
      "latitude": -33.8397222,
      "longitude": 151.1441667,
      "distanceKm": 6.35,
      "direction": "NW",
      "population": null
    },
    {
      "id": 1982,
      "name": "Riverview",
      "postcode": "2066",
      "state": "NSW",
      "latitude": -33.823207,
      "longitude": 151.1600134,
      "distanceKm": 6.37,
      "direction": "NW",
      "population": null
    },
    {
      "id": 2259,
      "name": "Kingsford",
      "postcode": "2032",
      "state": "NSW",
      "latitude": -33.9215922,
      "longitude": 151.2272307,
      "distanceKm": 6.41,
      "direction": "SE",
      "population": 13605
    },
    {
      "id": 2124,
      "name": "Chiswick",
      "postcode": "2046",
      "state": "NSW",
      "latitude": -33.8498337,
      "longitude": 151.1378781,
      "distanceKm": 6.45,
      "direction": "W",
      "population": null
    },
    {
      "id": 4003,
      "name": "Six Ways",
      "postcode": "2026",
      "state": "NSW",
      "latitude": -33.8890849,
      "longitude": 151.2704152,
      "distanceKm": 6.57,
      "direction": "E",
      "population": null
    },
    {
      "id": 4261,
      "name": "Marrickville",
      "postcode": "1475",
      "state": "NSW",
      "latitude": -33.9104,
      "longitude": 151.1560775,
      "distanceKm": 6.58,
      "direction": "SW",
      "population": null
    },
    {
      "id": 2783,
      "name": "Sydenham",
      "postcode": "2044",
      "state": "NSW",
      "latitude": -33.9184812,
      "longitude": 151.1680069,
      "distanceKm": 6.63,
      "direction": "SW",
      "population": null
    },
    {
      "id": 117,
      "name": "Lane Cove",
      "postcode": "1595",
      "state": "NSW",
      "latitude": -33.8146633,
      "longitude": 151.1699224,
      "distanceKm": 6.63,
      "direction": "NW",
      "population": 15888
    },
    {
      "id": 109,
      "name": "Hunters Hill",
      "postcode": "2110",
      "state": "NSW",
      "latitude": -33.8336171,
      "longitude": 151.1449446,
      "distanceKm": 6.64,
      "direction": "NW",
      "population": null
    },
    {
      "id": 2049,
      "name": "Willoughby",
      "postcode": "2068",
      "state": "NSW",
      "latitude": -33.8071021,
      "longitude": 151.1993551,
      "distanceKm": 6.66,
      "direction": "N",
      "population": 12996
    },
    {
      "id": 1981,
      "name": "Linley Point",
      "postcode": "2066",
      "state": "NSW",
      "latitude": -33.8272222,
      "longitude": 151.15,
      "distanceKm": 6.7,
      "direction": "NW",
      "population": null
    },
    {
      "id": 3991,
      "name": "Seven Ways",
      "postcode": "2026",
      "state": "NSW",
      "latitude": -33.8853767,
      "longitude": 151.2735682,
      "distanceKm": 6.71,
      "direction": "E",
      "population": null
    },
    {
      "id": 29,
      "name": "Vaucluse",
      "postcode": "2030",
      "state": "NSW",
      "latitude": -33.8558564,
      "longitude": 151.2761018,
      "distanceKm": 6.74,
      "direction": "E",
      "population": null
    },
    {
      "id": 118,
      "name": "Artarmon",
      "postcode": "1570",
      "state": "NSW",
      "latitude": -33.8084051,
      "longitude": 151.184511,
      "distanceKm": 6.76,
      "direction": "N",
      "population": 9406
    },
    {
      "id": 2817,
      "name": "Quaker's Hat",
      "postcode": "2088",
      "state": "NSW",
      "latitude": -33.8117737,
      "longitude": 151.2361017,
      "distanceKm": 6.79,
      "direction": "NE",
      "population": null
    },
    {
      "id": 2134,
      "name": "Wareemba",
      "postcode": "2046",
      "state": "NSW",
      "latitude": -33.8575001,
      "longitude": 151.1319513,
      "distanceKm": 6.8,
      "direction": "W",
      "population": null
    },
    {
      "id": 4,
      "name": "Bondi Beach",
      "postcode": "2026",
      "state": "NSW",
      "latitude": -33.8906977,
      "longitude": 151.2724119,
      "distanceKm": 6.81,
      "direction": "E",
      "population": 4343
    },
    {
      "id": 2290,
      "name": "Bronte",
      "postcode": "2024",
      "state": "NSW",
      "latitude": -33.9042128,
      "longitude": 151.2637774,
      "distanceKm": 6.86,
      "direction": "SE",
      "population": 4343
    },
    {
      "id": 166,
      "name": "The Spot",
      "postcode": "2031",
      "state": "NSW",
      "latitude": -33.9199739,
      "longitude": 151.2430682,
      "distanceKm": 6.87,
      "direction": "SE",
      "population": null
    },
    {
      "id": 1989,
      "name": "Henley",
      "postcode": "2111",
      "state": "NSW",
      "latitude": -33.8423815,
      "longitude": 151.1360364,
      "distanceKm": 6.9,
      "direction": "W",
      "population": null
    },
    {
      "id": 2291,
      "name": "North Bondi",
      "postcode": "2026",
      "state": "NSW",
      "latitude": -33.882351,
      "longitude": 151.2768611,
      "distanceKm": 6.91,
      "direction": "E",
      "population": null
    },
    {
      "id": 2522,
      "name": "Mascot",
      "postcode": "1460",
      "state": "NSW",
      "latitude": -33.9289562,
      "longitude": 151.1951782,
      "distanceKm": 6.93,
      "direction": "S",
      "population": 21573
    },
    {
      "id": 1990,
      "name": "Huntleys Cove",
      "postcode": "2111",
      "state": "NSW",
      "latitude": -33.8383333,
      "longitude": 151.1375,
      "distanceKm": 6.97,
      "direction": "NW",
      "population": null
    },
    {
      "id": 80,
      "name": "Five Dock",
      "postcode": "2046",
      "state": "NSW",
      "latitude": -33.8690024,
      "longitude": 151.1290231,
      "distanceKm": 6.99,
      "direction": "W",
      "population": null
    },
    {
      "id": 62,
      "name": "Tamarama",
      "postcode": "2026",
      "state": "NSW",
      "latitude": -33.8987452,
      "longitude": 151.2710753,
      "distanceKm": 7.09,
      "direction": "SE",
      "population": null
    },
    {
      "id": 2293,
      "name": "Dover Heights",
      "postcode": "2030",
      "state": "NSW",
      "latitude": -33.8739831,
      "longitude": 151.2810366,
      "distanceKm": 7.12,
      "direction": "E",
      "population": 11122
    },
    {
      "id": 2115,
      "name": "Daceyville",
      "postcode": "2032",
      "state": "NSW",
      "latitude": -33.9289328,
      "longitude": 151.2251839,
      "distanceKm": 7.13,
      "direction": "S",
      "population": null
    },
    {
      "id": 2786,
      "name": "Eastlakes",
      "postcode": "2018",
      "state": "NSW",
      "latitude": -33.9310733,
      "longitude": 151.2113667,
      "distanceKm": 7.14,
      "direction": "S",
      "population": 8941
    },
    {
      "id": 2120,
      "name": "Abbotsford",
      "postcode": "2046",
      "state": "NSW",
      "latitude": -33.8505529,
      "longitude": 151.129759,
      "distanceKm": 7.15,
      "direction": "W",
      "population": 4343
    },
    {
      "id": 4050,
      "name": "The Boreen",
      "postcode": "2066",
      "state": "NSW",
      "latitude": -33.8211292,
      "longitude": 151.1494464,
      "distanceKm": 7.2,
      "direction": "NW",
      "population": null
    },
    {
      "id": 5553,
      "name": "Laings Point",
      "postcode": "2539",
      "state": "NSW",
      "latitude": -33.8408362,
      "longitude": 151.2771329,
      "distanceKm": 7.32,
      "direction": "E",
      "population": null
    },
    {
      "id": 2483,
      "name": "Clovelly",
      "postcode": "2031",
      "state": "NSW",
      "latitude": -33.9126387,
      "longitude": 151.2617904,
      "distanceKm": 7.33,
      "direction": "SE",
      "population": null
    },
    {
      "id": 2466,
      "name": "Dulwich Hill",
      "postcode": "2203",
      "state": "NSW",
      "latitude": -33.9045849,
      "longitude": 151.1386091,
      "distanceKm": 7.38,
      "direction": "SW",
      "population": null
    },
    {
      "id": 2609,
      "name": "Tempe",
      "postcode": "2044",
      "state": "NSW",
      "latitude": -33.9247552,
      "longitude": 151.1647529,
      "distanceKm": 7.39,
      "direction": "SW",
      "population": null
    },
    {
      "id": 2052,
      "name": "Willoughby East",
      "postcode": "2068",
      "state": "NSW",
      "latitude": -33.7991667,
      "longitude": 151.2061111,
      "distanceKm": 7.53,
      "direction": "N",
      "population": null
    },
    {
      "id": 2054,
      "name": "Castlecrag",
      "postcode": "2068",
      "state": "NSW",
      "latitude": -33.8003455,
      "longitude": 151.2197795,
      "distanceKm": 7.53,
      "direction": "N",
      "population": 4343
    },
    {
      "id": 48,
      "name": "Ashfield",
      "postcode": "1800",
      "state": "NSW",
      "latitude": -33.8894781,
      "longitude": 151.1274125,
      "distanceKm": 7.56,
      "direction": "W",
      "population": 4343
    },
    {
      "id": 30,
      "name": "Watsons Bay",
      "postcode": "2030",
      "state": "NSW",
      "latitude": -33.8432736,
      "longitude": 151.2825736,
      "distanceKm": 7.69,
      "direction": "E",
      "population": null
    },
    {
      "id": 44,
      "name": "Coogee",
      "postcode": "2034",
      "state": "NSW",
      "latitude": -33.9217004,
      "longitude": 151.2557975,
      "distanceKm": 7.7,
      "direction": "SE",
      "population": 1234
    },
    {
      "id": 4331,
      "name": "Cardinal Freeman Village",
      "postcode": "1800",
      "state": "NSW",
      "latitude": -33.8967339,
      "longitude": 151.1286245,
      "distanceKm": 7.76,
      "direction": "W",
      "population": 4343
    },
    {
      "id": 1983,
      "name": "Lane Cove North",
      "postcode": "2066",
      "state": "NSW",
      "latitude": -33.8054674,
      "longitude": 151.1632084,
      "distanceKm": 7.82,
      "direction": "NW",
      "population": null
    },
    {
      "id": 43,
      "name": "Dolphins Point",
      "postcode": "2539",
      "state": "NSW",
      "latitude": -33.9199082,
      "longitude": 151.2606572,
      "distanceKm": 7.84,
      "direction": "SE",
      "population": null
    },
    {
      "id": 4031,
      "name": "Ben Buckler",
      "postcode": "2026",
      "state": "NSW",
      "latitude": -33.891517,
      "longitude": 151.2841942,
      "distanceKm": 7.86,
      "direction": "E",
      "population": 4343
    },
    {
      "id": 1980,
      "name": "Lane Cove West",
      "postcode": "2066",
      "state": "NSW",
      "latitude": -33.8119396,
      "longitude": 151.150078,
      "distanceKm": 7.92,
      "direction": "NW",
      "population": null
    },
    {
      "id": 2051,
      "name": "North Willoughby",
      "postcode": "2068",
      "state": "NSW",
      "latitude": -33.7942571,
      "longitude": 151.1994493,
      "distanceKm": 8.08,
      "direction": "N",
      "population": null
    },
    {
      "id": 33,
      "name": "Chatswood",
      "postcode": "2057",
      "state": "NSW",
      "latitude": -33.7967377,
      "longitude": 151.1814306,
      "distanceKm": 8.08,
      "direction": "N",
      "population": null
    },
    {
      "id": 3860,
      "name": "Middle Harbour",
      "postcode": "2092",
      "state": "NSW",
      "latitude": -33.7981933,
      "longitude": 151.2344026,
      "distanceKm": 8.12,
      "direction": "NE",
      "population": null
    },
    {
      "id": 7,
      "name": "Pagewood",
      "postcode": "2035",
      "state": "NSW",
      "latitude": -33.9390664,
      "longitude": 151.2199363,
      "distanceKm": 8.12,
      "direction": "S",
      "population": null
    },
    {
      "id": 1927,
      "name": "Clontarf",
      "postcode": "2093",
      "state": "NSW",
      "latitude": -33.8061118,
      "longitude": 151.2540508,
      "distanceKm": 8.16,
      "direction": "NE",
      "population": null
    },
    {
      "id": 3101,
      "name": "Middle Cove",
      "postcode": "2068",
      "state": "NSW",
      "latitude": -33.7927992,
      "longitude": 151.2112471,
      "distanceKm": 8.25,
      "direction": "N",
      "population": null
    },
    {
      "id": 2123,
      "name": "Canada Bay",
      "postcode": "2046",
      "state": "NSW",
      "latitude": -33.8646692,
      "longitude": 151.1151554,
      "distanceKm": 8.27,
      "direction": "W",
      "population": 4343
    },
    {
      "id": 2376,
      "name": "Croydon",
      "postcode": "2132",
      "state": "NSW",
      "latitude": -33.8777935,
      "longitude": 151.1156502,
      "distanceKm": 8.31,
      "direction": "W",
      "population": 10993
    },
    {
      "id": 4334,
      "name": "Pacific Place",
      "postcode": "2057",
      "state": "NSW",
      "latitude": -33.7943796,
      "longitude": 151.1804,
      "distanceKm": 8.36,
      "direction": "N",
      "population": null
    },
    {
      "id": 2575,
      "name": "Wolli Creek",
      "postcode": "2205",
      "state": "NSW",
      "latitude": -33.9308899,
      "longitude": 151.1546823,
      "distanceKm": 8.45,
      "direction": "SW",
      "population": 10731
    },
    {
      "id": 1988,
      "name": "Gladesville",
      "postcode": "1675",
      "state": "NSW",
      "latitude": -33.8275,
      "longitude": 151.1263889,
      "distanceKm": 8.45,
      "direction": "NW",
      "population": null
    },
    {
      "id": 2122,
      "name": "Cabarita",
      "postcode": "2137",
      "state": "NSW",
      "latitude": -33.8475029,
      "longitude": 151.1158878,
      "distanceKm": 8.48,
      "direction": "W",
      "population": 4343
    },
    {
      "id": 2159,
      "name": "Hurlstone Park",
      "postcode": "2193",
      "state": "NSW",
      "latitude": -33.91,
      "longitude": 151.1286111,
      "distanceKm": 8.49,
      "direction": "SW",
      "population": null
    },
    {
      "id": 2257,
      "name": "South Coogee",
      "postcode": "2034",
      "state": "NSW",
      "latitude": -33.9322056,
      "longitude": 151.2539567,
      "distanceKm": 8.56,
      "direction": "SE",
      "population": 5611
    },
    {
      "id": 1929,
      "name": "Balgowlah Heights",
      "postcode": "2093",
      "state": "NSW",
      "latitude": -33.807495,
      "longitude": 151.2649923,
      "distanceKm": 8.66,
      "direction": "NE",
      "population": 4343
    },
    {
      "id": 2136,
      "name": "Ashbury",
      "postcode": "2193",
      "state": "NSW",
      "latitude": -33.9001107,
      "longitude": 151.1180724,
      "distanceKm": 8.8,
      "direction": "W",
      "population": 4343
    },
    {
      "id": 40,
      "name": "Eastgardens",
      "postcode": "2036",
      "state": "NSW",
      "latitude": -33.9447657,
      "longitude": 151.2250921,
      "distanceKm": 8.83,
      "direction": "S",
      "population": null
    },
    {
      "id": 2004,
      "name": "Chatswood West",
      "postcode": "2067",
      "state": "NSW",
      "latitude": -33.7960029,
      "longitude": 151.1597081,
      "distanceKm": 8.9,
      "direction": "NW",
      "population": null
    },
    {
      "id": 4316,
      "name": "Chatswood North",
      "postcode": "2069",
      "state": "NSW",
      "latitude": -33.7888683,
      "longitude": 151.1800415,
      "distanceKm": 8.96,
      "direction": "N",
      "population": null
    },
    {
      "id": 2557,
      "name": "Castle Cove",
      "postcode": "2069",
      "state": "NSW",
      "latitude": -33.7865285,
      "longitude": 151.2143187,
      "distanceKm": 8.97,
      "direction": "N",
      "population": 4343
    },
    {
      "id": 2113,
      "name": "Botany",
      "postcode": "1455",
      "state": "NSW",
      "latitude": -33.947829,
      "longitude": 151.1990644,
      "distanceKm": 8.98,
      "direction": "S",
      "population": 12960
    },
    {
      "id": 2005,
      "name": "Tennyson Point",
      "postcode": "2111",
      "state": "NSW",
      "latitude": -33.8313822,
      "longitude": 151.116944,
      "distanceKm": 9.01,
      "direction": "W",
      "population": null
    },
    {
      "id": 2002,
      "name": "East Ryde",
      "postcode": "2113",
      "state": "NSW",
      "latitude": -33.8097017,
      "longitude": 151.1353884,
      "distanceKm": 9.02,
      "direction": "NW",
      "population": null
    },
    {
      "id": 2121,
      "name": "Breakfast Point",
      "postcode": "2137",
      "state": "NSW",
      "latitude": -33.8422769,
      "longitude": 151.1111054,
      "distanceKm": 9.07,
      "direction": "W",
      "population": 4343
    },
    {
      "id": 2003,
      "name": "Fullers Bridge",
      "postcode": "2067",
      "state": "NSW",
      "latitude": -33.7983333,
      "longitude": 151.1511111,
      "distanceKm": 9.08,
      "direction": "NW",
      "population": null
    },
    {
      "id": 2125,
      "name": "Concord",
      "postcode": "2137",
      "state": "NSW",
      "latitude": -33.8556716,
      "longitude": 151.1067667,
      "distanceKm": 9.13,
      "direction": "W",
      "population": null
    },
    {
      "id": 1926,
      "name": "Seaforth",
      "postcode": "2092",
      "state": "NSW",
      "latitude": -33.7910792,
      "longitude": 151.2430284,
      "distanceKm": 9.15,
      "direction": "NE",
      "population": null
    },
    {
      "id": 2777,
      "name": "Turrella",
      "postcode": "2205",
      "state": "NSW",
      "latitude": -33.9302706,
      "longitude": 151.1409234,
      "distanceKm": 9.16,
      "direction": "SW",
      "population": null
    },
    {
      "id": 2149,
      "name": "Earlwood",
      "postcode": "2206",
      "state": "NSW",
      "latitude": -33.9247222,
      "longitude": 151.1313889,
      "distanceKm": 9.31,
      "direction": "SW",
      "population": 17969
    },
    {
      "id": 3770,
      "name": "North Harbour",
      "postcode": "2093",
      "state": "NSW",
      "latitude": -33.8152,
      "longitude": 151.2846,
      "distanceKm": 9.38,
      "direction": "NE",
      "population": null
    },
    {
      "id": 2118,
      "name": "Burwood",
      "postcode": "1805",
      "state": "NSW",
      "latitude": -33.8784753,
      "longitude": 151.104049,
      "distanceKm": 9.38,
      "direction": "W",
      "population": 4343
    },
    {
      "id": 1948,
      "name": "Roseville",
      "postcode": "2069",
      "state": "NSW",
      "latitude": -33.784545,
      "longitude": 151.1778441,
      "distanceKm": 9.47,
      "direction": "N",
      "population": null
    },
    {
      "id": 42,
      "name": "Maroubra",
      "postcode": "2035",
      "state": "NSW",
      "latitude": -33.9453441,
      "longitude": 151.2456824,
      "distanceKm": 9.49,
      "direction": "SE",
      "population": null
    },
    {
      "id": 2385,
      "name": "The Old Mans Hat",
      "postcode": "2539",
      "state": "NSW",
      "latitude": -33.8206405,
      "longitude": 151.2912545,
      "distanceKm": 9.53,
      "direction": "NE",
      "population": null
    },
    {
      "id": 2129,
      "name": "Mortlake",
      "postcode": "2137",
      "state": "NSW",
      "latitude": -33.8410416,
      "longitude": 151.1061114,
      "distanceKm": 9.55,
      "direction": "W",
      "population": null
    },
    {
      "id": 2145,
      "name": "Canterbury",
      "postcode": "2193",
      "state": "NSW",
      "latitude": -33.9130231,
      "longitude": 151.1170149,
      "distanceKm": 9.57,
      "direction": "SW",
      "population": 4343
    },
    {
      "id": 1928,
      "name": "Balgowlah",
      "postcode": "2093",
      "state": "NSW",
      "latitude": -33.7944424,
      "longitude": 151.2608261,
      "distanceKm": 9.59,
      "direction": "NE",
      "population": 4343
    },
    {
      "id": 2578,
      "name": "Arncliffe",
      "postcode": "2205",
      "state": "NSW",
      "latitude": -33.938236,
      "longitude": 151.145508,
      "distanceKm": 9.6,
      "direction": "SW",
      "population": 4343
    },
    {
      "id": 2119,
      "name": "Burwood Heights",
      "postcode": "2136",
      "state": "NSW",
      "latitude": -33.8894444,
      "longitude": 151.1038889,
      "distanceKm": 9.64,
      "direction": "W",
      "population": 4343
    },
    {
      "id": 3916,
      "name": "Crimson Hill",
      "postcode": "2067",
      "state": "NSW",
      "latitude": -33.7876956,
      "longitude": 151.1613594,
      "distanceKm": 9.66,
      "direction": "NW",
      "population": null
    },
    {
      "id": 2114,
      "name": "Banksmeadow",
      "postcode": "2019",
      "state": "NSW",
      "latitude": -33.9542459,
      "longitude": 151.2157073,
      "distanceKm": 9.73,
      "direction": "S",
      "population": 508
    },
    {
      "id": 1919,
      "name": "North Balgowlah",
      "postcode": "2093",
      "state": "NSW",
      "latitude": -33.7881457,
      "longitude": 151.2507285,
      "distanceKm": 9.74,
      "direction": "NE",
      "population": null
    },
    {
      "id": 2116,
      "name": "Hillsdale",
      "postcode": "2036",
      "state": "NSW",
      "latitude": -33.9529465,
      "longitude": 151.2274123,
      "distanceKm": 9.77,
      "direction": "S",
      "population": null
    },
    {
      "id": 2354,
      "name": "Maroubra Bay",
      "postcode": "2035",
      "state": "NSW",
      "latitude": -33.9455221,
      "longitude": 151.253571,
      "distanceKm": 9.82,
      "direction": "SE",
      "population": null
    },
    {
      "id": 2373,
      "name": "Kay-ye-my Point",
      "postcode": "2094",
      "state": "NSW",
      "latitude": -33.8008526,
      "longitude": 151.2760338,
      "distanceKm": 9.88,
      "direction": "NE",
      "population": null
    },
    {
      "id": 2461,
      "name": "Kyeemagh",
      "postcode": "2216",
      "state": "NSW",
      "latitude": -33.9492195,
      "longitude": 151.1607373,
      "distanceKm": 9.98,
      "direction": "SW",
      "population": null
    },
    {
      "id": 2148,
      "name": "Croydon Park",
      "postcode": "2133",
      "state": "NSW",
      "latitude": -33.8975316,
      "longitude": 151.1024641,
      "distanceKm": 10.03,
      "direction": "W",
      "population": null
    },
    {
      "id": 1999,
      "name": "Putney",
      "postcode": "2112",
      "state": "NSW",
      "latitude": -33.826067,
      "longitude": 151.1064224,
      "distanceKm": 10.15,
      "direction": "NW",
      "population": 4163
    },
    {
      "id": 1949,
      "name": "Roseville Chase",
      "postcode": "2069",
      "state": "NSW",
      "latitude": -33.7747222,
      "longitude": 151.2002778,
      "distanceKm": 10.24,
      "direction": "N",
      "population": null
    },
    {
      "id": 2816,
      "name": "Federation Point",
      "postcode": "1655",
      "state": "NSW",
      "latitude": -33.799744,
      "longitude": 151.2804035,
      "distanceKm": 10.25,
      "direction": "NE",
      "population": null
    },
    {
      "id": 1911,
      "name": "Killarney Heights",
      "postcode": "2087",
      "state": "NSW",
      "latitude": -33.7751234,
      "longitude": 151.2181136,
      "distanceKm": 10.27,
      "direction": "N",
      "population": null
    },
    {
      "id": 1930,
      "name": "Fairlight",
      "postcode": "2094",
      "state": "NSW",
      "latitude": -33.7938789,
      "longitude": 151.2741471,
      "distanceKm": 10.36,
      "direction": "NE",
      "population": null
    },
    {
      "id": 2747,
      "name": "Marjorie's Glen",
      "postcode": "2069",
      "state": "NSW",
      "latitude": -33.7736463,
      "longitude": 151.2017311,
      "distanceKm": 10.36,
      "direction": "N",
      "population": null
    },
    {
      "id": 2117,
      "name": "Enfield",
      "postcode": "2136",
      "state": "NSW",
      "latitude": -33.8900628,
      "longitude": 151.0959145,
      "distanceKm": 10.37,
      "direction": "W",
      "population": null
    },
    {
      "id": 2372,
      "name": "North Head Sanctuary",
      "postcode": "1655",
      "state": "NSW",
      "latitude": -33.8138158,
      "longitude": 151.2967902,
      "distanceKm": 10.38,
      "direction": "NE",
      "population": null
    },
    {
      "id": 2270,
      "name": "Bardwell Valley",
      "postcode": "2207",
      "state": "NSW",
      "latitude": -33.937452,
      "longitude": 151.1304335,
      "distanceKm": 10.39,
      "direction": "SW",
      "population": 4343
    },
    {
      "id": 2460,
      "name": "Banksia",
      "postcode": "2216",
      "state": "NSW",
      "latitude": -33.9448646,
      "longitude": 151.1402066,
      "distanceKm": 10.49,
      "direction": "SW",
      "population": 4343
    },
    {
      "id": 95,
      "name": "North Ryde",
      "postcode": "1670",
      "state": "NSW",
      "latitude": -33.7975472,
      "longitude": 151.127306,
      "distanceKm": 10.51,
      "direction": "NW",
      "population": null
    },
    {
      "id": 2000,
      "name": "Ryde",
      "postcode": "1680",
      "state": "NSW",
      "latitude": -33.8125405,
      "longitude": 151.1115717,
      "distanceKm": 10.51,
      "direction": "NW",
      "population": null
    },
    {
      "id": 2267,
      "name": "Bardwell Park",
      "postcode": "2207",
      "state": "NSW",
      "latitude": -33.9355556,
      "longitude": 151.1238889,
      "distanceKm": 10.65,
      "direction": "SW",
      "population": 4343
    },
    {
      "id": 1946,
      "name": "Lindfield",
      "postcode": "2070",
      "state": "NSW",
      "latitude": -33.775698,
      "longitude": 151.1688652,
      "distanceKm": 10.65,
      "direction": "N",
      "population": null
    },
    {
      "id": 14,
      "name": "Campsie",
      "postcode": "2194",
      "state": "NSW",
      "latitude": -33.9143894,
      "longitude": 151.1032133,
      "distanceKm": 10.74,
      "direction": "SW",
      "population": 4343
    },
    {
      "id": 2126,
      "name": "Concord West",
      "postcode": "2138",
      "state": "NSW",
      "latitude": -33.843168,
      "longitude": 151.0920563,
      "distanceKm": 10.74,
      "direction": "W",
      "population": null
    },
    {
      "id": 2130,
      "name": "North Strathfield",
      "postcode": "2137",
      "state": "NSW",
      "latitude": -33.8588178,
      "longitude": 151.088578,
      "distanceKm": 10.76,
      "direction": "W",
      "population": null
    },
    {
      "id": 5542,
      "name": "St. Patrick's Estate",
      "postcode": "1655",
      "state": "NSW",
      "latitude": -33.8043857,
      "longitude": 151.2952576,
      "distanceKm": 10.9,
      "direction": "NE",
      "population": null
    },
    {
      "id": 1915,
      "name": "Manly Vale",
      "postcode": "2093",
      "state": "NSW",
      "latitude": -33.7830838,
      "longitude": 151.2659938,
      "distanceKm": 10.91,
      "direction": "NE",
      "population": null
    },
    {
      "id": 32,
      "name": "Manly",
      "postcode": "1655",
      "state": "NSW",
      "latitude": -33.7971937,
      "longitude": 151.2879845,
      "distanceKm": 10.94,
      "direction": "NE",
      "population": null
    },
    {
      "id": 2262,
      "name": "Matraville",
      "postcode": "2036",
      "state": "NSW",
      "latitude": -33.9639325,
      "longitude": 151.2334198,
      "distanceKm": 11.08,
      "direction": "S",
      "population": null
    },
    {
      "id": 1947,
      "name": "East Lindfield",
      "postcode": "2070",
      "state": "NSW",
      "latitude": -33.7674175,
      "longitude": 151.1874672,
      "distanceKm": 11.16,
      "direction": "N",
      "population": null
    },
    {
      "id": 11,
      "name": "Brighton-Le-Sands",
      "postcode": "2216",
      "state": "NSW",
      "latitude": -33.9580947,
      "longitude": 151.1526052,
      "distanceKm": 11.19,
      "direction": "SW",
      "population": 4343
    },
    {
      "id": 4067,
      "name": "The Bluff",
      "postcode": "2087",
      "state": "NSW",
      "latitude": -33.7668445,
      "longitude": 151.2281357,
      "distanceKm": 11.32,
      "direction": "N",
      "population": null
    },
    {
      "id": 4047,
      "name": "Natural Bridge",
      "postcode": "2087",
      "state": "NSW",
      "latitude": -33.7661217,
      "longitude": 151.223805,
      "distanceKm": 11.33,
      "direction": "N",
      "population": null
    },
    {
      "id": 2272,
      "name": "Rockdale",
      "postcode": "2216",
      "state": "NSW",
      "latitude": -33.9542619,
      "longitude": 151.1403655,
      "distanceKm": 11.35,
      "direction": "SW",
      "population": null
    },
    {
      "id": 41,
      "name": "Malabar",
      "postcode": "2036",
      "state": "NSW",
      "latitude": -33.9629779,
      "longitude": 151.2480171,
      "distanceKm": 11.38,
      "direction": "SE",
      "population": null
    },
    {
      "id": 2147,
      "name": "Clemton Park",
      "postcode": "2206",
      "state": "NSW",
      "latitude": -33.9258322,
      "longitude": 151.1029075,
      "distanceKm": 11.44,
      "direction": "SW",
      "population": null
    },
    {
      "id": 86,
      "name": "Strathfield",
      "postcode": "1819",
      "state": "NSW",
      "latitude": -33.8791285,
      "longitude": 151.0811758,
      "distanceKm": 11.49,
      "direction": "W",
      "population": null
    },
    {
      "id": 1895,
      "name": "Allambie Heights",
      "postcode": "2100",
      "state": "NSW",
      "latitude": -33.7705067,
      "longitude": 151.249675,
      "distanceKm": 11.49,
      "direction": "NE",
      "population": 4343
    },
    {
      "id": 2278,
      "name": "Homebush",
      "postcode": "2140",
      "state": "NSW",
      "latitude": -33.860451,
      "longitude": 151.0806118,
      "distanceKm": 11.49,
      "direction": "W",
      "population": 20822
    },
    {
      "id": 2128,
      "name": "Liberty Grove",
      "postcode": "2138",
      "state": "NSW",
      "latitude": -33.8413889,
      "longitude": 151.0838889,
      "distanceKm": 11.52,
      "direction": "W",
      "population": null
    },
    {
      "id": 1894,
      "name": "Allambie",
      "postcode": "2100",
      "state": "NSW",
      "latitude": -33.7733265,
      "longitude": 151.2594443,
      "distanceKm": 11.57,
      "direction": "NE",
      "population": 4343
    },
    {
      "id": 2131,
      "name": "Rhodes",
      "postcode": "2138",
      "state": "NSW",
      "latitude": -33.8290589,
      "longitude": 151.0873578,
      "distanceKm": 11.63,
      "direction": "W",
      "population": 11453
    },
    {
      "id": 1909,
      "name": "Forestville",
      "postcode": "2087",
      "state": "NSW",
      "latitude": -33.7620891,
      "longitude": 151.2150889,
      "distanceKm": 11.68,
      "direction": "N",
      "population": null
    },
    {
      "id": 156,
      "name": "Belfield",
      "postcode": "2191",
      "state": "NSW",
      "latitude": -33.9045165,
      "longitude": 151.0860013,
      "distanceKm": 11.73,
      "direction": "W",
      "population": 4343
    },
    {
      "id": 2266,
      "name": "Bexley North",
      "postcode": "2207",
      "state": "NSW",
      "latitude": -33.9425365,
      "longitude": 151.1152081,
      "distanceKm": 11.76,
      "direction": "SW",
      "population": 4343
    },
    {
      "id": 4208,
      "name": "Jamieson Square",
      "postcode": "2087",
      "state": "NSW",
      "latitude": -33.7610568,
      "longitude": 151.2168814,
      "distanceKm": 11.81,
      "direction": "N",
      "population": null
    },
    {
      "id": 2258,
      "name": "Port Botany",
      "postcode": "2036",
      "state": "NSW",
      "latitude": -33.9734678,
      "longitude": 151.2178519,
      "distanceKm": 11.87,
      "direction": "S",
      "population": null
    },
    {
      "id": 2264,
      "name": "Chifley",
      "postcode": "2036",
      "state": "NSW",
      "latitude": -33.9702813,
      "longitude": 151.2394867,
      "distanceKm": 11.9,
      "direction": "S",
      "population": null
    },
    {
      "id": 1944,
      "name": "Killara",
      "postcode": "2071",
      "state": "NSW",
      "latitude": -33.7660606,
      "longitude": 151.1601121,
      "distanceKm": 11.93,
      "direction": "NW",
      "population": null
    },
    {
      "id": 2001,
      "name": "Macquarie Park",
      "postcode": "2113",
      "state": "NSW",
      "latitude": -33.7814961,
      "longitude": 151.1256747,
      "distanceKm": 11.97,
      "direction": "NW",
      "population": null
    },
    {
      "id": 112,
      "name": "Queenscliff",
      "postcode": "2096",
      "state": "NSW",
      "latitude": -33.7823916,
      "longitude": 151.2854011,
      "distanceKm": 12.01,
      "direction": "NE",
      "population": null
    },
    {
      "id": 1994,
      "name": "Meadowbank",
      "postcode": "2114",
      "state": "NSW",
      "latitude": -33.8174993,
      "longitude": 151.0884249,
      "distanceKm": 12.07,
      "direction": "NW",
      "population": null
    },
    {
      "id": 2277,
      "name": "Strathfield South",
      "postcode": "2136",
      "state": "NSW",
      "latitude": -33.8966667,
      "longitude": 151.0788889,
      "distanceKm": 12.08,
      "direction": "W",
      "population": 3636
    },
    {
      "id": 1921,
      "name": "North Manly",
      "postcode": "2100",
      "state": "NSW",
      "latitude": -33.7729035,
      "longitude": 151.2707221,
      "distanceKm": 12.1,
      "direction": "NE",
      "population": null
    },
    {
      "id": 2794,
      "name": "Bumbora Point",
      "postcode": "2036",
      "state": "NSW",
      "latitude": -33.975725,
      "longitude": 151.2243013,
      "distanceKm": 12.2,
      "direction": "S",
      "population": 4343
    },
    {
      "id": 2137,
      "name": "Belmore",
      "postcode": "2192",
      "state": "NSW",
      "latitude": -33.9194073,
      "longitude": 151.0878936,
      "distanceKm": 12.25,
      "direction": "SW",
      "population": 4343
    },
    {
      "id": 1896,
      "name": "Bantry Bay",
      "postcode": "1639",
      "state": "NSW",
      "latitude": -33.7584429,
      "longitude": 151.2304111,
      "distanceKm": 12.28,
      "direction": "N",
      "population": 4343
    },
    {
      "id": 3048,
      "name": "Midway",
      "postcode": "2720",
      "state": "NSW",
      "latitude": -33.7955961,
      "longitude": 151.1022517,
      "distanceKm": 12.34,
      "direction": "NW",
      "population": null
    },
    {
      "id": 2268,
      "name": "Bexley",
      "postcode": "2207",
      "state": "NSW",
      "latitude": -33.9523543,
      "longitude": 151.1181427,
      "distanceKm": 12.39,
      "direction": "SW",
      "population": 4343
    },
    {
      "id": 2184,
      "name": "Kingsgrove",
      "postcode": "1480",
      "state": "NSW",
      "latitude": -33.9371844,
      "longitude": 151.0996523,
      "distanceKm": 12.44,
      "direction": "SW",
      "population": null
    },
    {
      "id": 2576,
      "name": "Sydney Olympic Park",
      "postcode": "2127",
      "state": "NSW",
      "latitude": -33.842903,
      "longitude": 151.072535,
      "distanceKm": 12.5,
      "direction": "W",
      "population": null
    },
    {
      "id": 2771,
      "name": "Wentworth Point",
      "postcode": "2127",
      "state": "NSW",
      "latitude": -33.8268958,
      "longitude": 151.0774351,
      "distanceKm": 12.57,
      "direction": "W",
      "population": null
    },
    {
      "id": 1997,
      "name": "Denistone East",
      "postcode": "2112",
      "state": "NSW",
      "latitude": -33.7962842,
      "longitude": 151.0982887,
      "distanceKm": 12.58,
      "direction": "NW",
      "population": null
    },
    {
      "id": 1912,
      "name": "Freshwater",
      "postcode": "2096",
      "state": "NSW",
      "latitude": -33.7750987,
      "longitude": 151.2844815,
      "distanceKm": 12.6,
      "direction": "NE",
      "population": null
    },
    {
      "id": 2260,
      "name": "Phillip Bay",
      "postcode": "2036",
      "state": "NSW",
      "latitude": -33.9787887,
      "longitude": 151.2327229,
      "distanceKm": 12.67,
      "direction": "S",
      "population": null
    },
    {
      "id": 1995,
      "name": "West Ryde",
      "postcode": "1685",
      "state": "NSW",
      "latitude": -33.8094444,
      "longitude": 151.0858333,
      "distanceKm": 12.7,
      "direction": "NW",
      "population": null
    },
    {
      "id": 2274,
      "name": "Monterey",
      "postcode": "2217",
      "state": "NSW",
      "latitude": -33.9720137,
      "longitude": 151.1480392,
      "distanceKm": 12.76,
      "direction": "SW",
      "population": null
    },
    {
      "id": 2276,
      "name": "Homebush West",
      "postcode": "2140",
      "state": "NSW",
      "latitude": -33.8619802,
      "longitude": 151.0665026,
      "distanceKm": 12.78,
      "direction": "W",
      "population": null
    },
    {
      "id": 1945,
      "name": "East Killara",
      "postcode": "2071",
      "state": "NSW",
      "latitude": -33.7540328,
      "longitude": 151.1762055,
      "distanceKm": 12.8,
      "direction": "N",
      "population": null
    },
    {
      "id": 2271,
      "name": "Kogarah",
      "postcode": "1485",
      "state": "NSW",
      "latitude": -33.968226,
      "longitude": 151.1354509,
      "distanceKm": 12.92,
      "direction": "SW",
      "population": 13051
    },
    {
      "id": 1899,
      "name": "Brookvale",
      "postcode": "2100",
      "state": "NSW",
      "latitude": -33.7628854,
      "longitude": 151.2707024,
      "distanceKm": 13.07,
      "direction": "NE",
      "population": 4343
    },
    {
      "id": 1996,
      "name": "Denistone",
      "postcode": "2114",
      "state": "NSW",
      "latitude": -33.7989066,
      "longitude": 151.0887,
      "distanceKm": 13.11,
      "direction": "NW",
      "population": 6969
    },
    {
      "id": 1942,
      "name": "West Pymble",
      "postcode": "2073",
      "state": "NSW",
      "latitude": -33.7646844,
      "longitude": 151.1318993,
      "distanceKm": 13.19,
      "direction": "NW",
      "population": null
    },
    {
      "id": 3858,
      "name": "Botany Bay",
      "postcode": "2036",
      "state": "NSW",
      "latitude": -33.9859293,
      "longitude": 151.1883543,
      "distanceKm": 13.28,
      "direction": "S",
      "population": 4343
    },
    {
      "id": 1943,
      "name": "Gordon",
      "postcode": "2072",
      "state": "NSW",
      "latitude": -33.7553899,
      "longitude": 151.1518099,
      "distanceKm": 13.31,
      "direction": "NW",
      "population": null
    },
    {
      "id": 2162,
      "name": "Lakemba",
      "postcode": "2195",
      "state": "NSW",
      "latitude": -33.9196311,
      "longitude": 151.0749236,
      "distanceKm": 13.33,
      "direction": "W",
      "population": 17092
    },
    {
      "id": 1905,
      "name": "Curl Curl",
      "postcode": "2096",
      "state": "NSW",
      "latitude": -33.7698341,
      "longitude": 151.2898175,
      "distanceKm": 13.36,
      "direction": "NE",
      "population": null
    },
    {
      "id": 1910,
      "name": "Frenchs Forest",
      "postcode": "1639",
      "state": "NSW",
      "latitude": -33.7479954,
      "longitude": 151.2292718,
      "distanceKm": 13.4,
      "direction": "N",
      "population": null
    },
    {
      "id": 2245,
      "name": "Melrose Park",
      "postcode": "2114",
      "state": "NSW",
      "latitude": -33.8153435,
      "longitude": 151.0733298,
      "distanceKm": 13.42,
      "direction": "W",
      "population": null
    },
    {
      "id": 2265,
      "name": "Little Bay",
      "postcode": "2036",
      "state": "NSW",
      "latitude": -33.9834309,
      "longitude": 151.2470329,
      "distanceKm": 13.5,
      "direction": "S",
      "population": null
    },
    {
      "id": 1939,
      "name": "Barra Brui",
      "postcode": "2071",
      "state": "NSW",
      "latitude": -33.7483333,
      "longitude": 151.1677778,
      "distanceKm": 13.59,
      "direction": "N",
      "population": 4343
    },
    {
      "id": 1998,
      "name": "Marsfield",
      "postcode": "2122",
      "state": "NSW",
      "latitude": -33.7777956,
      "longitude": 151.1032015,
      "distanceKm": 13.63,
      "direction": "NW",
      "population": null
    },
    {
      "id": 6,
      "name": "La Perouse",
      "postcode": "2036",
      "state": "NSW",
      "latitude": -33.9886291,
      "longitude": 151.2320796,
      "distanceKm": 13.73,
      "direction": "S",
      "population": null
    },
    {
      "id": 3049,
      "name": "Eastwood Five Ways",
      "postcode": "2122",
      "state": "NSW",
      "latitude": -33.7839898,
      "longitude": 151.0941575,
      "distanceKm": 13.75,
      "direction": "NW",
      "population": null
    },
    {
      "id": 1897,
      "name": "Beacon Hill",
      "postcode": "2100",
      "state": "NSW",
      "latitude": -33.751787,
      "longitude": 151.2600828,
      "distanceKm": 13.78,
      "direction": "NE",
      "population": 4343
    },
    {
      "id": 2768,
      "name": "Rookwood",
      "postcode": "2141",
      "state": "NSW",
      "latitude": -33.8737017,
      "longitude": 151.0552971,
      "distanceKm": 13.82,
      "direction": "W",
      "population": null
    },
    {
      "id": 2269,
      "name": "Carlton",
      "postcode": "2218",
      "state": "NSW",
      "latitude": -33.9707904,
      "longitude": 151.1213704,
      "distanceKm": 13.84,
      "direction": "SW",
      "population": 4343
    },
    {
      "id": 4341,
      "name": "Zenith Garden Estate",
      "postcode": "1639",
      "state": "NSW",
      "latitude": -33.7436273,
      "longitude": 151.2295255,
      "distanceKm": 13.88,
      "direction": "N",
      "population": null
    },
    {
      "id": 2275,
      "name": "Ramsgate Beach",
      "postcode": "2217",
      "state": "NSW",
      "latitude": -33.9824013,
      "longitude": 151.1461479,
      "distanceKm": 13.89,
      "direction": "SW",
      "population": null
    },
    {
      "id": 1993,
      "name": "Denistone West",
      "postcode": "2114",
      "state": "NSW",
      "latitude": -33.8005739,
      "longitude": 151.0767642,
      "distanceKm": 13.93,
      "direction": "NW",
      "population": null
    },
    {
      "id": 2778,
      "name": "Roselands",
      "postcode": "2196",
      "state": "NSW",
      "latitude": -33.9339943,
      "longitude": 151.0765121,
      "distanceKm": 13.98,
      "direction": "SW",
      "population": 14577
    },
    {
      "id": 1918,
      "name": "North Curl Curl",
      "postcode": "2099",
      "state": "NSW",
      "latitude": -33.7630002,
      "longitude": 151.2904773,
      "distanceKm": 14.02,
      "direction": "NE",
      "population": null
    },
    {
      "id": 2247,
      "name": "Eastwood",
      "postcode": "2122",
      "state": "NSW",
      "latitude": -33.79,
      "longitude": 151.0844444,
      "distanceKm": 14.02,
      "direction": "NW",
      "population": 18974
    },
    {
      "id": 2066,
      "name": "Greenacre",
      "postcode": "2190",
      "state": "NSW",
      "latitude": -33.9022902,
      "longitude": 151.058546,
      "distanceKm": 14.06,
      "direction": "W",
      "population": null
    },
    {
      "id": 1923,
      "name": "Wingala",
      "postcode": "2099",
      "state": "NSW",
      "latitude": -33.7617144,
      "longitude": 151.2895202,
      "distanceKm": 14.08,
      "direction": "NE",
      "population": null
    },
    {
      "id": 2174,
      "name": "Wiley Park",
      "postcode": "2195",
      "state": "NSW",
      "latitude": -33.9230556,
      "longitude": 151.0677778,
      "distanceKm": 14.09,
      "direction": "W",
      "population": 10135
    },
    {
      "id": 2193,
      "name": "Beverley Park",
      "postcode": "2217",
      "state": "NSW",
      "latitude": -33.9787995,
      "longitude": 151.1316285,
      "distanceKm": 14.11,
      "direction": "SW",
      "population": 4343
    },
    {
      "id": 1906,
      "name": "Davidson",
      "postcode": "2085",
      "state": "NSW",
      "latitude": -33.7398592,
      "longitude": 151.1942222,
      "distanceKm": 14.13,
      "direction": "N",
      "population": null
    },
    {
      "id": 82,
      "name": "Ramsgate",
      "postcode": "2217",
      "state": "NSW",
      "latitude": -33.982713,
      "longitude": 151.1399314,
      "distanceKm": 14.16,
      "direction": "SW",
      "population": null
    },
    {
      "id": 2185,
      "name": "Hurstville",
      "postcode": "1493",
      "state": "NSW",
      "latitude": -33.960707,
      "longitude": 151.1003611,
      "distanceKm": 14.17,
      "direction": "SW",
      "population": null
    },
    {
      "id": 2608,
      "name": "Newington",
      "postcode": "2127",
      "state": "NSW",
      "latitude": -33.8342301,
      "longitude": 151.0558716,
      "distanceKm": 14.23,
      "direction": "W",
      "population": null
    },
    {
      "id": 2190,
      "name": "Allawah",
      "postcode": "2218",
      "state": "NSW",
      "latitude": -33.9727133,
      "longitude": 151.1145545,
      "distanceKm": 14.38,
      "direction": "SW",
      "population": 4343
    },
    {
      "id": 1916,
      "name": "Narraweena",
      "postcode": "2099",
      "state": "NSW",
      "latitude": -33.7502066,
      "longitude": 151.2741566,
      "distanceKm": 14.47,
      "direction": "NE",
      "population": null
    },
    {
      "id": 2343,
      "name": "Browns Rock",
      "postcode": "2036",
      "state": "NSW",
      "latitude": -33.9950622,
      "longitude": 151.2380747,
      "distanceKm": 14.54,
      "direction": "S",
      "population": 4343
    },
    {
      "id": 2182,
      "name": "Beverly Hills",
      "postcode": "2209",
      "state": "NSW",
      "latitude": -33.9497444,
      "longitude": 151.0817342,
      "distanceKm": 14.6,
      "direction": "SW",
      "population": 4343
    },
    {
      "id": 4345,
      "name": "Seaview Rise Estate",
      "postcode": "2085",
      "state": "NSW",
      "latitude": -33.7356609,
      "longitude": 151.2219412,
      "distanceKm": 14.66,
      "direction": "N",
      "population": null
    },
    {
      "id": 85,
      "name": "Lidcombe",
      "postcode": "1825",
      "state": "NSW",
      "latitude": -33.8630649,
      "longitude": 151.0456771,
      "distanceKm": 14.7,
      "direction": "W",
      "population": 21197
    },
    {
      "id": 78,
      "name": "Pymble",
      "postcode": "2073",
      "state": "NSW",
      "latitude": -33.7450185,
      "longitude": 151.1424708,
      "distanceKm": 14.7,
      "direction": "NW",
      "population": 17221
    },
    {
      "id": 2192,
      "name": "Kogarah Bay",
      "postcode": "2217",
      "state": "NSW",
      "latitude": -33.9816792,
      "longitude": 151.1239702,
      "distanceKm": 14.74,
      "direction": "SW",
      "population": null
    },
    {
      "id": 2064,
      "name": "Chullora",
      "postcode": "1405",
      "state": "NSW",
      "latitude": -33.8925,
      "longitude": 151.0477778,
      "distanceKm": 14.77,
      "direction": "W",
      "population": 1469
    },
    {
      "id": 2246,
      "name": "Ermington",
      "postcode": "1700",
      "state": "NSW",
      "latitude": -33.8101156,
      "longitude": 151.0600559,
      "distanceKm": 14.78,
      "direction": "W",
      "population": null
    },
    {
      "id": 113,
      "name": "Dee Why",
      "postcode": "2099",
      "state": "NSW",
      "latitude": -33.7526555,
      "longitude": 151.2875707,
      "distanceKm": 14.83,
      "direction": "NE",
      "population": null
    },
    {
      "id": 1922,
      "name": "Oxford Falls",
      "postcode": "2100",
      "state": "NSW",
      "latitude": -33.7371005,
      "longitude": 151.2438186,
      "distanceKm": 14.86,
      "direction": "N",
      "population": null
    },
    {
      "id": 2369,
      "name": "Silverwater",
      "postcode": "1811",
      "state": "NSW",
      "latitude": -33.834881,
      "longitude": 151.0471218,
      "distanceKm": 14.99,
      "direction": "W",
      "population": null
    },
    {
      "id": 3906,
      "name": "Sutherland Point",
      "postcode": "2259",
      "state": "NSW",
      "latitude": -34.0015985,
      "longitude": 151.2212437,
      "distanceKm": 15.01,
      "direction": "S",
      "population": null
    },
    {
      "id": 2356,
      "name": "Inscription Point",
      "postcode": "2259",
      "state": "NSW",
      "latitude": -34.0017406,
      "longitude": 151.2236472,
      "distanceKm": 15.05,
      "direction": "S",
      "population": null
    },
    {
      "id": 2273,
      "name": "Dolls Point",
      "postcode": "2219",
      "state": "NSW",
      "latitude": -33.9936111,
      "longitude": 151.1447222,
      "distanceKm": 15.09,
      "direction": "SW",
      "population": null
    },
    {
      "id": 1900,
      "name": "Bungaroo",
      "postcode": "2085",
      "state": "NSW",
      "latitude": -33.7316667,
      "longitude": 151.1844444,
      "distanceKm": 15.13,
      "direction": "N",
      "population": 4343
    },
    {
      "id": 1907,
      "name": "Dee Why Beach",
      "postcode": "2099",
      "state": "NSW",
      "latitude": -33.753289,
      "longitude": 151.2957487,
      "distanceKm": 15.18,
      "direction": "NE",
      "population": null
    },
    {
      "id": 2166,
      "name": "Narwee",
      "postcode": "2209",
      "state": "NSW",
      "latitude": -33.9455556,
      "longitude": 151.0694444,
      "distanceKm": 15.23,
      "direction": "SW",
      "population": null
    },
    {
      "id": 1898,
      "name": "Belrose",
      "postcode": "2085",
      "state": "NSW",
      "latitude": -33.730009,
      "longitude": 151.2191438,
      "distanceKm": 15.26,
      "direction": "N",
      "population": 8652
    },
    {
      "id": 2189,
      "name": "South Hurstville",
      "postcode": "2221",
      "state": "NSW",
      "latitude": -33.9777213,
      "longitude": 151.1060554,
      "distanceKm": 15.29,
      "direction": "SW",
      "population": null
    },
    {
      "id": 1940,
      "name": "East St Ives",
      "postcode": "2075",
      "state": "NSW",
      "latitude": -33.7316667,
      "longitude": 151.1677778,
      "distanceKm": 15.39,
      "direction": "N",
      "population": null
    },
    {
      "id": 19,
      "name": "Sans Souci",
      "postcode": "2219",
      "state": "NSW",
      "latitude": -33.9926292,
      "longitude": 151.1337972,
      "distanceKm": 15.39,
      "direction": "SW",
      "population": null
    },
    {
      "id": 2183,
      "name": "Penshurst",
      "postcode": "2222",
      "state": "NSW",
      "latitude": -33.9648292,
      "longitude": 151.0849525,
      "distanceKm": 15.49,
      "direction": "SW",
      "population": 9528
    },
    {
      "id": 2065,
      "name": "Mount Lewis",
      "postcode": "2190",
      "state": "NSW",
      "latitude": -33.9174118,
      "longitude": 151.0476044,
      "distanceKm": 15.55,
      "direction": "W",
      "population": null
    },
    {
      "id": 2191,
      "name": "Carss Park",
      "postcode": "2221",
      "state": "NSW",
      "latitude": -33.9869843,
      "longitude": 151.1169446,
      "distanceKm": 15.58,
      "direction": "SW",
      "population": 4343
    },
    {
      "id": 20,
      "name": "Sandringham",
      "postcode": "2219",
      "state": "NSW",
      "latitude": -33.9971236,
      "longitude": 151.1400138,
      "distanceKm": 15.62,
      "direction": "SW",
      "population": null
    },
    {
      "id": 1931,
      "name": "South Turramurra",
      "postcode": "2074",
      "state": "NSW",
      "latitude": -33.7510951,
      "longitude": 151.1084667,
      "distanceKm": 15.63,
      "direction": "NW",
      "population": null
    },
    {
      "id": 2167,
      "name": "Punchbowl",
      "postcode": "2196",
      "state": "NSW",
      "latitude": -33.928717,
      "longitude": 151.0522591,
      "distanceKm": 15.66,
      "direction": "W",
      "population": 21544
    },
    {
      "id": 1903,
      "name": "Cromer",
      "postcode": "2099",
      "state": "NSW",
      "latitude": -33.7385227,
      "longitude": 151.2762995,
      "distanceKm": 15.73,
      "direction": "NE",
      "population": 8046
    },
    {
      "id": 2674,
      "name": "Berala",
      "postcode": "2141",
      "state": "NSW",
      "latitude": -33.8753943,
      "longitude": 151.0343253,
      "distanceKm": 15.77,
      "direction": "W",
      "population": 8610
    },
    {
      "id": 1971,
      "name": "North Epping",
      "postcode": "2121",
      "state": "NSW",
      "latitude": -33.7586111,
      "longitude": 151.0941667,
      "distanceKm": 15.78,
      "direction": "NW",
      "population": null
    },
    {
      "id": 1936,
      "name": "St Ives",
      "postcode": "2075",
      "state": "NSW",
      "latitude": -33.7292063,
      "longitude": 151.159396,
      "distanceKm": 15.84,
      "direction": "N",
      "population": 21665
    },
    {
      "id": 1904,
      "name": "Cromer Heights",
      "postcode": "2099",
      "state": "NSW",
      "latitude": -33.7318792,
      "longitude": 151.2645053,
      "distanceKm": 15.98,
      "direction": "NE",
      "population": null
    },
    {
      "id": 2243,
      "name": "Dundas Valley",
      "postcode": "2117",
      "state": "NSW",
      "latitude": -33.7936744,
      "longitude": 151.0559069,
      "distanceKm": 15.98,
      "direction": "NW",
      "population": null
    },
    {
      "id": 122,
      "name": "Epping",
      "postcode": "1710",
      "state": "NSW",
      "latitude": -33.7718546,
      "longitude": 151.0745367,
      "distanceKm": 16,
      "direction": "NW",
      "population": null
    },
    {
      "id": 2186,
      "name": "Hurstville Grove",
      "postcode": "2220",
      "state": "NSW",
      "latitude": -33.9775526,
      "longitude": 151.0929579,
      "distanceKm": 16.02,
      "direction": "SW",
      "population": null
    },
    {
      "id": 2062,
      "name": "Potts Hill",
      "postcode": "2143",
      "state": "NSW",
      "latitude": -33.8922191,
      "longitude": 151.0329222,
      "distanceKm": 16.12,
      "direction": "W",
      "population": null
    },
    {
      "id": 2724,
      "name": "Yena Gap",
      "postcode": "2259",
      "state": "NSW",
      "latitude": -34.011655,
      "longitude": 151.2318599,
      "distanceKm": 16.24,
      "direction": "S",
      "population": null
    },
    {
      "id": 2194,
      "name": "Blakehurst",
      "postcode": "2221",
      "state": "NSW",
      "latitude": -33.9898519,
      "longitude": 151.1085596,
      "distanceKm": 16.26,
      "direction": "SW",
      "population": 4343
    },
    {
      "id": 2238,
      "name": "Rydalmere",
      "postcode": "2116",
      "state": "NSW",
      "latitude": -33.8117088,
      "longitude": 151.0411702,
      "distanceKm": 16.31,
      "direction": "W",
      "population": null
    },
    {
      "id": 2241,
      "name": "Dundas",
      "postcode": "2117",
      "state": "NSW",
      "latitude": -33.802949,
      "longitude": 151.0440587,
      "distanceKm": 16.46,
      "direction": "W",
      "population": null
    },
    {
      "id": 1934,
      "name": "Turramurra",
      "postcode": "2074",
      "state": "NSW",
      "latitude": -33.7328828,
      "longitude": 151.128541,
      "distanceKm": 16.46,
      "direction": "NW",
      "population": 20251
    },
    {
      "id": 2181,
      "name": "Mortdale",
      "postcode": "2223",
      "state": "NSW",
      "latitude": -33.9672997,
      "longitude": 151.0721865,
      "distanceKm": 16.54,
      "direction": "SW",
      "population": null
    },
    {
      "id": 2239,
      "name": "Camellia",
      "postcode": "2142",
      "state": "NSW",
      "latitude": -33.8197799,
      "longitude": 151.0346488,
      "distanceKm": 16.57,
      "direction": "W",
      "population": 4343
    },
    {
      "id": 2179,
      "name": "Riverwood",
      "postcode": "2210",
      "state": "NSW",
      "latitude": -33.9472222,
      "longitude": 151.0530556,
      "distanceKm": 16.59,
      "direction": "SW",
      "population": 11606
    },
    {
      "id": 84,
      "name": "Auburn",
      "postcode": "1835",
      "state": "NSW",
      "latitude": -33.8545702,
      "longitude": 151.0255673,
      "distanceKm": 16.61,
      "direction": "W",
      "population": 4343
    },
    {
      "id": 2059,
      "name": "Regents Park",
      "postcode": "2143",
      "state": "NSW",
      "latitude": -33.8820048,
      "longitude": 151.02569,
      "distanceKm": 16.63,
      "direction": "W",
      "population": 5138
    },
    {
      "id": 2236,
      "name": "Rosehill",
      "postcode": "2142",
      "state": "NSW",
      "latitude": -33.8263889,
      "longitude": 151.0305556,
      "distanceKm": 16.72,
      "direction": "W",
      "population": null
    },
    {
      "id": 2188,
      "name": "Kyle Bay",
      "postcode": "2221",
      "state": "NSW",
      "latitude": -33.9897577,
      "longitude": 151.0992166,
      "distanceKm": 16.74,
      "direction": "SW",
      "population": null
    },
    {
      "id": 121,
      "name": "Bankstown",
      "postcode": "1885",
      "state": "NSW",
      "latitude": -33.9171897,
      "longitude": 151.0335881,
      "distanceKm": 16.76,
      "direction": "W",
      "population": 4343
    },
    {
      "id": 2187,
      "name": "Connells Point",
      "postcode": "2221",
      "state": "NSW",
      "latitude": -33.9869476,
      "longitude": 151.0942725,
      "distanceKm": 16.76,
      "direction": "SW",
      "population": null
    },
    {
      "id": 2316,
      "name": "Collaroy",
      "postcode": "2097",
      "state": "NSW",
      "latitude": -33.7382194,
      "longitude": 151.2996618,
      "distanceKm": 16.78,
      "direction": "NE",
      "population": null
    },
    {
      "id": 2723,
      "name": "Cape Solander",
      "postcode": "2259",
      "state": "NSW",
      "latitude": -34.016615,
      "longitude": 151.2317835,
      "distanceKm": 16.79,
      "direction": "S",
      "population": 4343
    },
    {
      "id": 1925,
      "name": "Wheeler Heights",
      "postcode": "2097",
      "state": "NSW",
      "latitude": -33.7286867,
      "longitude": 151.2806965,
      "distanceKm": 16.89,
      "direction": "NE",
      "population": null
    },
    {
      "id": 2244,
      "name": "Mobbs Hill",
      "postcode": "2118",
      "state": "NSW",
      "latitude": -33.7805938,
      "longitude": 151.0539993,
      "distanceKm": 16.91,
      "direction": "NW",
      "population": null
    },
    {
      "id": 1957,
      "name": "Cheltenham",
      "postcode": "2119",
      "state": "NSW",
      "latitude": -33.7569444,
      "longitude": 151.0775,
      "distanceKm": 16.95,
      "direction": "NW",
      "population": null
    },
    {
      "id": 4324,
      "name": "Regents Park Industrial Estate",
      "postcode": "2143",
      "state": "NSW",
      "latitude": -33.8794712,
      "longitude": 151.0215546,
      "distanceKm": 16.98,
      "direction": "W",
      "population": null
    },
    {
      "id": 2180,
      "name": "Peakhurst",
      "postcode": "2210",
      "state": "NSW",
      "latitude": -33.9616444,
      "longitude": 151.0590667,
      "distanceKm": 17.06,
      "direction": "SW",
      "population": null
    },
    {
      "id": 1902,
      "name": "Collaroy Plateau",
      "postcode": "2097",
      "state": "NSW",
      "latitude": -33.7303841,
      "longitude": 151.2910394,
      "distanceKm": 17.14,
      "direction": "NE",
      "population": null
    },
    {
      "id": 1933,
      "name": "Warrawee",
      "postcode": "2074",
      "state": "NSW",
      "latitude": -33.7279732,
      "longitude": 151.1232279,
      "distanceKm": 17.16,
      "direction": "NW",
      "population": null
    },
    {
      "id": 2240,
      "name": "Telopea",
      "postcode": "2117",
      "state": "NSW",
      "latitude": -33.7939218,
      "longitude": 151.0409442,
      "distanceKm": 17.17,
      "direction": "NW",
      "population": null
    },
    {
      "id": 2428,
      "name": "Pell's Point",
      "postcode": "2323",
      "state": "NSW",
      "latitude": -34.0194399,
      "longitude": 151.1721437,
      "distanceKm": 17.17,
      "direction": "S",
      "population": null
    },
    {
      "id": 1938,
      "name": "North St Ives",
      "postcode": "2075",
      "state": "NSW",
      "latitude": -33.715,
      "longitude": 151.1677778,
      "distanceKm": 17.2,
      "direction": "N",
      "population": null
    },
    {
      "id": 2061,
      "name": "Birrong",
      "postcode": "2143",
      "state": "NSW",
      "latitude": -33.8918622,
      "longitude": 151.0201957,
      "distanceKm": 17.27,
      "direction": "W",
      "population": 4343
    },
    {
      "id": 23,
      "name": "Kurnell",
      "postcode": "2231",
      "state": "NSW",
      "latitude": -34.0222379,
      "longitude": 151.1880555,
      "distanceKm": 17.29,
      "direction": "S",
      "population": null
    },
    {
      "id": 2235,
      "name": "Clyde",
      "postcode": "2142",
      "state": "NSW",
      "latitude": -33.833532,
      "longitude": 151.0218891,
      "distanceKm": 17.3,
      "direction": "W",
      "population": null
    },
    {
      "id": 1901,
      "name": "Collaroy Beach",
      "postcode": "2097",
      "state": "NSW",
      "latitude": -33.7315662,
      "longitude": 151.300444,
      "distanceKm": 17.45,
      "direction": "NE",
      "population": null
    },
    {
      "id": 2762,
      "name": "Oatley",
      "postcode": "2223",
      "state": "NSW",
      "latitude": -33.9815241,
      "longitude": 151.0744354,
      "distanceKm": 17.49,
      "direction": "SW",
      "population": null
    },
    {
      "id": 2645,
      "name": "Tabbigai Gap",
      "postcode": "2259",
      "state": "NSW",
      "latitude": -34.0246641,
      "longitude": 151.2283077,
      "distanceKm": 17.63,
      "direction": "S",
      "population": null
    },
    {
      "id": 2060,
      "name": "Yagoona",
      "postcode": "2199",
      "state": "NSW",
      "latitude": -33.9037907,
      "longitude": 151.0176677,
      "distanceKm": 17.76,
      "direction": "W",
      "population": null
    },
    {
      "id": 2242,
      "name": "Carlingford",
      "postcode": "2118",
      "state": "NSW",
      "latitude": -33.7744947,
      "longitude": 151.0475215,
      "distanceKm": 17.79,
      "direction": "NW",
      "population": 4343
    },
    {
      "id": 4314,
      "name": "Elizabeth Farm",
      "postcode": "2150",
      "state": "NSW",
      "latitude": -33.819467,
      "longitude": 151.0190119,
      "distanceKm": 17.96,
      "direction": "W",
      "population": null
    },
    {
      "id": 2232,
      "name": "South Granville",
      "postcode": "2142",
      "state": "NSW",
      "latitude": -33.8577778,
      "longitude": 151.0105556,
      "distanceKm": 17.98,
      "direction": "W",
      "population": null
    },
    {
      "id": 127,
      "name": "Kangaroo Point",
      "postcode": "2224",
      "state": "NSW",
      "latitude": -34.002073,
      "longitude": 151.0967132,
      "distanceKm": 17.99,
      "direction": "SW",
      "population": null
    },
    {
      "id": 4232,
      "name": "Cunninghams Rest",
      "postcode": "2075",
      "state": "NSW",
      "latitude": -33.7061097,
      "longitude": 151.174808,
      "distanceKm": 18.06,
      "direction": "N",
      "population": null
    },
    {
      "id": 2055,
      "name": "Sefton",
      "postcode": "2162",
      "state": "NSW",
      "latitude": -33.8873088,
      "longitude": 151.0106256,
      "distanceKm": 18.08,
      "direction": "W",
      "population": null
    },
    {
      "id": 2237,
      "name": "Oatlands",
      "postcode": "2117",
      "state": "NSW",
      "latitude": -33.7973385,
      "longitude": 151.0256526,
      "distanceKm": 18.27,
      "direction": "W",
      "population": null
    },
    {
      "id": 1952,
      "name": "Beecroft",
      "postcode": "2119",
      "state": "NSW",
      "latitude": -33.7497631,
      "longitude": 151.0657475,
      "distanceKm": 18.28,
      "direction": "NW",
      "population": 4343
    },
    {
      "id": 2234,
      "name": "Shorts Corner",
      "postcode": "2117",
      "state": "NSW",
      "latitude": -33.8083921,
      "longitude": 151.0196918,
      "distanceKm": 18.3,
      "direction": "W",
      "population": null
    },
    {
      "id": 2019,
      "name": "Caravan Head",
      "postcode": "2225",
      "state": "NSW",
      "latitude": -33.9983333,
      "longitude": 151.0844444,
      "distanceKm": 18.31,
      "direction": "SW",
      "population": 4343
    },
    {
      "id": 1932,
      "name": "Wahroonga",
      "postcode": "2076",
      "state": "NSW",
      "latitude": -33.7183413,
      "longitude": 151.1174435,
      "distanceKm": 18.35,
      "direction": "NW",
      "population": null
    },
    {
      "id": 2763,
      "name": "Peakhurst Heights",
      "postcode": "2210",
      "state": "NSW",
      "latitude": -33.9768872,
      "longitude": 151.0544039,
      "distanceKm": 18.47,
      "direction": "SW",
      "population": null
    },
    {
      "id": 4315,
      "name": "Experiment Farm",
      "postcode": "2150",
      "state": "NSW",
      "latitude": -33.8205206,
      "longitude": 151.0126403,
      "distanceKm": 18.49,
      "direction": "W",
      "population": null
    },
    {
      "id": 2058,
      "name": "Padstow",
      "postcode": "2211",
      "state": "NSW",
      "latitude": -33.9487767,
      "longitude": 151.030116,
      "distanceKm": 18.5,
      "direction": "SW",
      "population": 17200
    },
    {
      "id": 2231,
      "name": "Harris Park",
      "postcode": "2150",
      "state": "NSW",
      "latitude": -33.8224029,
      "longitude": 151.0117558,
      "distanceKm": 18.51,
      "direction": "W",
      "population": null
    },
    {
      "id": 1937,
      "name": "St Ives Chase",
      "postcode": "2075",
      "state": "NSW",
      "latitude": -33.7030556,
      "longitude": 151.1652778,
      "distanceKm": 18.54,
      "direction": "N",
      "population": null
    },
    {
      "id": 22,
      "name": "Taren Point",
      "postcode": "2229",
      "state": "NSW",
      "latitude": -34.0200181,
      "longitude": 151.1226751,
      "distanceKm": 18.58,
      "direction": "SW",
      "population": null
    },
    {
      "id": 2448,
      "name": "Greenhills",
      "postcode": "2323",
      "state": "NSW",
      "latitude": -34.0326026,
      "longitude": 151.1737982,
      "distanceKm": 18.59,
      "direction": "S",
      "population": null
    },
    {
      "id": 2383,
      "name": "Long Nose Point",
      "postcode": "2259",
      "state": "NSW",
      "latitude": -34.0339949,
      "longitude": 151.2248315,
      "distanceKm": 18.62,
      "direction": "S",
      "population": null
    },
    {
      "id": 1972,
      "name": "Normanhurst",
      "postcode": "2076",
      "state": "NSW",
      "latitude": -33.7238649,
      "longitude": 151.0977351,
      "distanceKm": 18.7,
      "direction": "NW",
      "population": null
    },
    {
      "id": 2230,
      "name": "Granville",
      "postcode": "1830",
      "state": "NSW",
      "latitude": -33.8345097,
      "longitude": 151.0060111,
      "distanceKm": 18.72,
      "direction": "W",
      "population": null
    },